{
    "b_1": {
        "coordinates": {
            "lat": 38.26931808215373, 
            "lon": 140.86232010242833
        }, 
        "name": "交通局大学病院前"
    }, 
    "b_101": {
        "coordinates": {
            "lat": 38.271850946017636, 
            "lon": 140.86685572023038
        }, 
        "name": "木町通二丁目"
    }, 
    "b_1019": {
        "coordinates": {
            "lat": 38.28266682927804, 
            "lon": 140.87233393390008
        }, 
        "name": "台原入口"
    }, 
    "b_1021": {
        "coordinates": {
            "lat": 38.28924417606651, 
            "lon": 140.87203337821776
        }, 
        "name": "ＪＣＨＯ仙台病院前"
    }, 
    "b_1023": {
        "coordinates": {
            "lat": 38.29410561884864, 
            "lon": 140.8730822339243
        }, 
        "name": "北根一丁目"
    }, 
    "b_1025": {
        "coordinates": {
            "lat": 38.29658732174085, 
            "lon": 140.87445006160866
        }, 
        "name": "北根二丁目・文学館前"
    }, 
    "b_1027": {
        "coordinates": {
            "lat": 38.299294006104425, 
            "lon": 140.8761347970589
        }, 
        "name": "北根三丁目"
    }, 
    "b_1029": {
        "coordinates": {
            "lat": 38.303438598282554, 
            "lon": 140.87816638193704
        }, 
        "name": "黒松団地入口"
    }, 
    "b_1043": {
        "coordinates": {
            "lat": 38.30766538408701, 
            "lon": 140.87906416830253
        }, 
        "name": "虹の丘団地入口"
    }, 
    "b_1045": {
        "coordinates": {
            "lat": 38.3107609240432, 
            "lon": 140.88122384640369
        }, 
        "name": "向原"
    }, 
    "b_105": {
        "coordinates": {
            "lat": 38.27079900858154, 
            "lon": 140.86081543697537
        }, 
        "name": "大学病院前"
    }, 
    "b_1061": {
        "coordinates": {
            "lat": 38.31304184216495, 
            "lon": 140.88414238788147
        }, 
        "name": "地下鉄八乙女駅"
    }, 
    "b_107": {
        "coordinates": {
            "lat": 38.27051674060854, 
            "lon": 140.85646775548832
        }, 
        "name": "厚生病院前"
    }, 
    "b_1081": {
        "coordinates": {
            "lat": 38.321204007567, 
            "lon": 140.88316209345285
        }, 
        "name": "泉警察署前"
    }, 
    "b_1085": {
        "coordinates": {
            "lat": 38.322761588983724, 
            "lon": 140.88145827434306
        }, 
        "name": "地下鉄泉中央駅"
    }, 
    "b_1089": {
        "coordinates": {
            "lat": 38.32103779129431, 
            "lon": 140.87612379674187
        }, 
        "name": "七北田公園西口"
    }, 
    "b_109": {
        "coordinates": {
            "lat": 38.27010170512895, 
            "lon": 140.85189509879882
        }, 
        "name": "八幡一丁目"
    }, 
    "b_1091": {
        "coordinates": {
            "lat": 38.325223551727916, 
            "lon": 140.8816789759819
        }, 
        "name": "泉区役所・イズミティ２１前"
    }, 
    "b_1093": {
        "coordinates": {
            "lat": 38.3240825437296, 
            "lon": 140.8805952296369
        }, 
        "name": "泉中央駅北口"
    }, 
    "b_1095": {
        "coordinates": {
            "lat": 38.32504629383609, 
            "lon": 140.87855146610315
        }, 
        "name": "菅間"
    }, 
    "b_1099": {
        "coordinates": {
            "lat": 38.32531232131494, 
            "lon": 140.87539254953197
        }, 
        "name": "徳洲会病院前"
    }, 
    "b_11": {
        "coordinates": {
            "lat": 38.25761756247998, 
            "lon": 140.8722400951306
        }, 
        "name": "一番町中郵便局前"
    }, 
    "b_1103": {
        "coordinates": {
            "lat": 38.326277099876904, 
            "lon": 140.86862306730637
        }, 
        "name": "泉総合運動場・社会福祉センター前"
    }, 
    "b_1107": {
        "coordinates": {
            "lat": 38.325420971075005, 
            "lon": 140.86236779288984
        }, 
        "name": "野村"
    }, 
    "b_1109": {
        "coordinates": {
            "lat": 38.327037802593196, 
            "lon": 140.84990069826534
        }, 
        "name": "上野前"
    }, 
    "b_111": {
        "coordinates": {
            "lat": 38.26995470736406, 
            "lon": 140.84794237828186
        }, 
        "name": "龍宝寺入口"
    }, 
    "b_1111": {
        "coordinates": {
            "lat": 38.32887747283139, 
            "lon": 140.84228707919203
        }, 
        "name": "泉パークタウン入口"
    }, 
    "b_1113": {
        "coordinates": {
            "lat": 38.32801826124155, 
            "lon": 140.8344538804071
        }, 
        "name": "八沢川"
    }, 
    "b_1115": {
        "coordinates": {
            "lat": 38.32819995407712, 
            "lon": 140.82116192037037
        }, 
        "name": "実沢"
    }, 
    "b_1117": {
        "coordinates": {
            "lat": 38.32896089980496, 
            "lon": 140.81635339578602
        }, 
        "name": "小角"
    }, 
    "b_1119": {
        "coordinates": {
            "lat": 38.32906582673325, 
            "lon": 140.81281257390538
        }, 
        "name": "鼻毛橋"
    }, 
    "b_1121": {
        "coordinates": {
            "lat": 38.328144705615614, 
            "lon": 140.8065992434426
        }, 
        "name": "窪"
    }, 
    "b_1122": {
        "coordinates": {
            "lat": 38.33351627909063, 
            "lon": 140.80235129333195
        }, 
        "name": "福沢入口"
    }, 
    "b_1123": {
        "coordinates": {
            "lat": 38.33579686639316, 
            "lon": 140.80223119829213
        }, 
        "name": "判在家"
    }, 
    "b_1124": {
        "coordinates": {
            "lat": 38.338296584469674, 
            "lon": 140.801398096821
        }, 
        "name": "根白石デイサービスセンター入口"
    }, 
    "b_1125": {
        "coordinates": {
            "lat": 38.34024136675941, 
            "lon": 140.80084305336592
        }, 
        "name": "根白石下町"
    }, 
    "b_1127": {
        "coordinates": {
            "lat": 38.343297112195984, 
            "lon": 140.79862004172233
        }, 
        "name": "根白石小学校前"
    }, 
    "b_1129": {
        "coordinates": {
            "lat": 38.34378592595433, 
            "lon": 140.7973120722842
        }, 
        "name": "根白石"
    }, 
    "b_113": {
        "coordinates": {
            "lat": 38.26974079444033, 
            "lon": 140.8452565000805
        }, 
        "name": "大崎八幡宮前"
    }, 
    "b_1130": {
        "coordinates": {
            "lat": 38.34268600231637, 
            "lon": 140.79494843034155
        }, 
        "name": "根白石市民センター前"
    }, 
    "b_1131": {
        "coordinates": {
            "lat": 38.345605713074846, 
            "lon": 140.79626818629382
        }, 
        "name": "町頭"
    }, 
    "b_1133": {
        "coordinates": {
            "lat": 38.35044710526927, 
            "lon": 140.7942981269751
        }, 
        "name": "川向"
    }, 
    "b_1135": {
        "coordinates": {
            "lat": 38.35489760168928, 
            "lon": 140.78635969243507
        }, 
        "name": "川崎入口"
    }, 
    "b_1137": {
        "coordinates": {
            "lat": 38.35532251697549, 
            "lon": 140.78411180399866
        }, 
        "name": "泉川崎"
    }, 
    "b_1139": {
        "coordinates": {
            "lat": 38.357717217412805, 
            "lon": 140.78162578908064
        }, 
        "name": "川崎上"
    }, 
    "b_1141": {
        "coordinates": {
            "lat": 38.363575398102675, 
            "lon": 140.77695396287697
        }, 
        "name": "南切立"
    }, 
    "b_1143": {
        "coordinates": {
            "lat": 38.366484188042094, 
            "lon": 140.77319830750707
        }, 
        "name": "七北田ダム入口"
    }, 
    "b_1145": {
        "coordinates": {
            "lat": 38.37135938338137, 
            "lon": 140.7665264148926
        }, 
        "name": "旗枠"
    }, 
    "b_1147": {
        "coordinates": {
            "lat": 38.373328218735466, 
            "lon": 140.75961495378027
        }, 
        "name": "金森橋"
    }, 
    "b_1149": {
        "coordinates": {
            "lat": 38.3746867508555, 
            "lon": 140.74750895217227
        }, 
        "name": "笈坂東"
    }, 
    "b_1151": {
        "coordinates": {
            "lat": 38.37893423428684, 
            "lon": 140.74076431672535
        }, 
        "name": "笈坂"
    }, 
    "b_1153": {
        "coordinates": {
            "lat": 38.381289862503834, 
            "lon": 140.72754336180017
        }, 
        "name": "芳の平"
    }, 
    "b_1155": {
        "coordinates": {
            "lat": 38.38999572617596, 
            "lon": 140.7189795054773
        }, 
        "name": "泉岳自然ふれあい館"
    }, 
    "b_1165": {
        "coordinates": {
            "lat": 38.365575411831365, 
            "lon": 140.78998695507133
        }, 
        "name": "要害"
    }, 
    "b_1231": {
        "coordinates": {
            "lat": 38.314057299796396, 
            "lon": 140.868851666559
        }, 
        "name": "加茂入口"
    }, 
    "b_1233": {
        "coordinates": {
            "lat": 38.31230740583861, 
            "lon": 140.86420713286026
        }, 
        "name": "加茂一丁目"
    }, 
    "b_1235": {
        "coordinates": {
            "lat": 38.31200459062087, 
            "lon": 140.86020942325453
        }, 
        "name": "加茂一丁目西"
    }, 
    "b_1237": {
        "coordinates": {
            "lat": 38.313296327035864, 
            "lon": 140.85620969594797
        }, 
        "name": "加茂四丁目"
    }, 
    "b_1239": {
        "coordinates": {
            "lat": 38.31439116670221, 
            "lon": 140.8537348510678
        }, 
        "name": "加茂小学校前"
    }, 
    "b_1241": {
        "coordinates": {
            "lat": 38.31530180957276, 
            "lon": 140.84840719603702
        }, 
        "name": "加茂五丁目"
    }, 
    "b_1245": {
        "coordinates": {
            "lat": 38.31196536114924, 
            "lon": 140.85637363250876
        }, 
        "name": "加茂四丁目南"
    }, 
    "b_1247": {
        "coordinates": {
            "lat": 38.31072730777564, 
            "lon": 140.84891736430896
        }, 
        "name": "上谷刈山添"
    }, 
    "b_1250": {
        "coordinates": {
            "lat": 38.31450970264045, 
            "lon": 140.8819625013289
        }, 
        "name": "地下鉄八乙女駅入口"
    }, 
    "b_1251": {
        "coordinates": {
            "lat": 38.314845459297366, 
            "lon": 140.87962879079203
        }, 
        "name": "上谷刈一丁目東"
    }, 
    "b_1253": {
        "coordinates": {
            "lat": 38.31551836704191, 
            "lon": 140.87528717592954
        }, 
        "name": "上谷刈一丁目"
    }, 
    "b_1254": {
        "coordinates": {
            "lat": 38.316040192983195, 
            "lon": 140.87169828328877
        }, 
        "name": "上谷刈二丁目"
    }, 
    "b_1255": {
        "coordinates": {
            "lat": 38.31551825060554, 
            "lon": 140.86862050737344
        }, 
        "name": "上谷刈三丁目"
    }, 
    "b_1256": {
        "coordinates": {
            "lat": 38.31429634093674, 
            "lon": 140.86312907525243
        }, 
        "name": "加茂二丁目南"
    }, 
    "b_1265": {
        "coordinates": {
            "lat": 38.31957434911611, 
            "lon": 140.84502839101827
        }, 
        "name": "加茂五丁目北"
    }, 
    "b_1271": {
        "coordinates": {
            "lat": 38.317026504373814, 
            "lon": 140.8414957461656
        }, 
        "name": "長命ケ丘一丁目東"
    }, 
    "b_1273": {
        "coordinates": {
            "lat": 38.31657146962606, 
            "lon": 140.83672005262443
        }, 
        "name": "長命ケ丘一丁目"
    }, 
    "b_1275": {
        "coordinates": {
            "lat": 38.31555373482637, 
            "lon": 140.83294846827002
        }, 
        "name": "長命ケ丘五丁目"
    }, 
    "b_1277": {
        "coordinates": {
            "lat": 38.313018985390464, 
            "lon": 140.83177173826886
        }, 
        "name": "長命ケ丘六丁目"
    }, 
    "b_1279": {
        "coordinates": {
            "lat": 38.31049121725726, 
            "lon": 140.83274788470743
        }, 
        "name": "長命ケ丘四丁目"
    }, 
    "b_1281": {
        "coordinates": {
            "lat": 38.30999328041993, 
            "lon": 140.83649537418796
        }, 
        "name": "長命ケ丘三丁目"
    }, 
    "b_1283": {
        "coordinates": {
            "lat": 38.3121519883821, 
            "lon": 140.83935614831293
        }, 
        "name": "長命ケ丘二丁目西"
    }, 
    "b_1285": {
        "coordinates": {
            "lat": 38.314962819961764, 
            "lon": 140.8405650851488
        }, 
        "name": "長命ケ丘二丁目"
    }, 
    "b_1293": {
        "coordinates": {
            "lat": 38.33059197832774, 
            "lon": 140.77676744159106
        }, 
        "name": "住吉台西二丁目"
    }, 
    "b_1294": {
        "coordinates": {
            "lat": 38.33058606682169, 
            "lon": 140.77225587210057
        }, 
        "name": "住吉台西三丁目"
    }, 
    "b_1295": {
        "coordinates": {
            "lat": 38.330603144048, 
            "lon": 140.7799621757571
        }, 
        "name": "住吉台西四丁目"
    }, 
    "b_1296": {
        "coordinates": {
            "lat": 38.33230809619045, 
            "lon": 140.7876625688501
        }, 
        "name": "住吉台東三丁目"
    }, 
    "b_1297": {
        "coordinates": {
            "lat": 38.33140518945345, 
            "lon": 140.79065347314523
        }, 
        "name": "住吉台東四丁目"
    }, 
    "b_1298": {
        "coordinates": {
            "lat": 38.32873353106939, 
            "lon": 140.79067053919354
        }, 
        "name": "住吉台東五丁目"
    }, 
    "b_1299": {
        "coordinates": {
            "lat": 38.32791356845266, 
            "lon": 140.78778970508972
        }, 
        "name": "住吉台東二丁目"
    }, 
    "b_13": {
        "coordinates": {
            "lat": 38.2583264231426, 
            "lon": 140.8749648362026
        }, 
        "name": "郵政ビル前"
    }, 
    "b_1301": {
        "coordinates": {
            "lat": 38.33774951270398, 
            "lon": 140.79075900557874
        }, 
        "name": "住吉神社前"
    }, 
    "b_1303": {
        "coordinates": {
            "lat": 38.33589164902255, 
            "lon": 140.79036717922367
        }, 
        "name": "萩坂"
    }, 
    "b_1305": {
        "coordinates": {
            "lat": 38.33231693671392, 
            "lon": 140.7849477939026
        }, 
        "name": "住吉台中央"
    }, 
    "b_1307": {
        "coordinates": {
            "lat": 38.32664447557953, 
            "lon": 140.78424311362406
        }, 
        "name": "住吉台一丁目"
    }, 
    "b_1309": {
        "coordinates": {
            "lat": 38.3248247534251, 
            "lon": 140.78900669069446
        }, 
        "name": "住吉台入口"
    }, 
    "b_131": {
        "coordinates": {
            "lat": 38.26664858133376, 
            "lon": 140.8745514317716
        }, 
        "name": "錦町公園前"
    }, 
    "b_1311": {
        "coordinates": {
            "lat": 38.32547195887226, 
            "lon": 140.79200946707047
        }, 
        "name": "萱場"
    }, 
    "b_1313": {
        "coordinates": {
            "lat": 38.32831064796546, 
            "lon": 140.79795384268306
        }, 
        "name": "大満寺前"
    }, 
    "b_1315": {
        "coordinates": {
            "lat": 38.328199630241194, 
            "lon": 140.80262040468577
        }, 
        "name": "芦沢"
    }, 
    "b_133": {
        "coordinates": {
            "lat": 38.267226619546115, 
            "lon": 140.8770981380976
        }, 
        "name": "錦町"
    }, 
    "b_135": {
        "coordinates": {
            "lat": 38.26566186266326, 
            "lon": 140.88143479443863
        }, 
        "name": "花京院・シルバーセンター前"
    }, 
    "b_137": {
        "coordinates": {
            "lat": 38.26521505737565, 
            "lon": 140.88666549171901
        }, 
        "name": "小田原一丁目"
    }, 
    "b_1375": {
        "coordinates": {
            "lat": 38.3322612911522, 
            "lon": 140.79535693199546
        }, 
        "name": "露払"
    }, 
    "b_139": {
        "coordinates": {
            "lat": 38.26496207273358, 
            "lon": 140.88917612819537
        }, 
        "name": "常盤木学園前"
    }, 
    "b_141": {
        "coordinates": {
            "lat": 38.264756032041326, 
            "lon": 140.8919459076552
        }, 
        "name": "小田原二丁目"
    }, 
    "b_143": {
        "coordinates": {
            "lat": 38.26425613231985, 
            "lon": 140.89462570811898
        }, 
        "name": "第四合同庁舎前"
    }, 
    "b_145": {
        "coordinates": {
            "lat": 38.26374239301231, 
            "lon": 140.90004333740137
        }, 
        "name": "原町一丁目"
    }, 
    "b_147": {
        "coordinates": {
            "lat": 38.26481234260076, 
            "lon": 140.90370909480697
        }, 
        "name": "原町二丁目"
    }, 
    "b_149": {
        "coordinates": {
            "lat": 38.265878120321496, 
            "lon": 140.9070515459216
        }, 
        "name": "原町三丁目"
    }, 
    "b_15": {
        "coordinates": {
            "lat": 38.259167502519915, 
            "lon": 140.87829840951227
        }, 
        "name": "中央三丁目"
    }, 
    "b_151": {
        "coordinates": {
            "lat": 38.26575628806602, 
            "lon": 140.91272830230432
        }, 
        "name": "宮城野区役所前"
    }, 
    "b_1711": {
        "coordinates": {
            "lat": 38.30449272131017, 
            "lon": 140.88212294925322
        }, 
        "name": "黒松一丁目"
    }, 
    "b_1713": {
        "coordinates": {
            "lat": 38.307201328201515, 
            "lon": 140.88256473228546
        }, 
        "name": "黒松二丁目"
    }, 
    "b_1811": {
        "coordinates": {
            "lat": 38.34635253138795, 
            "lon": 140.79362031625288
        }, 
        "name": "上の宿"
    }, 
    "b_1813": {
        "coordinates": {
            "lat": 38.34875529476616, 
            "lon": 140.79160648397152
        }, 
        "name": "堂林"
    }, 
    "b_1815": {
        "coordinates": {
            "lat": 38.350322019723855, 
            "lon": 140.78863471418725
        }, 
        "name": "西泉"
    }, 
    "b_1817": {
        "coordinates": {
            "lat": 38.352980809569274, 
            "lon": 140.78334280902436
        }, 
        "name": "福岡"
    }, 
    "b_1819": {
        "coordinates": {
            "lat": 38.35332767897718, 
            "lon": 140.78117102897204
        }, 
        "name": "福岡小学校前"
    }, 
    "b_1821": {
        "coordinates": {
            "lat": 38.349664110513444, 
            "lon": 140.77708153729603
        }, 
        "name": "藤沢"
    }, 
    "b_1823": {
        "coordinates": {
            "lat": 38.34524231535637, 
            "lon": 140.7744541813271
        }, 
        "name": "柏坊"
    }, 
    "b_1825": {
        "coordinates": {
            "lat": 38.34608039669953, 
            "lon": 140.7810624828116
        }, 
        "name": "花輪"
    }, 
    "b_1841": {
        "coordinates": {
            "lat": 38.37131150940767, 
            "lon": 140.76072606547746
        }, 
        "name": "下鼬原"
    }, 
    "b_1843": {
        "coordinates": {
            "lat": 38.36694276587342, 
            "lon": 140.7581984210069
        }, 
        "name": "下荒沢"
    }, 
    "b_1845": {
        "coordinates": {
            "lat": 38.36468713265434, 
            "lon": 140.7558426094084
        }, 
        "name": "杉の崎公会堂前"
    }, 
    "b_1861": {
        "coordinates": {
            "lat": 38.35928324414241, 
            "lon": 140.78638448843122
        }, 
        "name": "鳥居原"
    }, 
    "b_1863": {
        "coordinates": {
            "lat": 38.36007206748194, 
            "lon": 140.78746214038827
        }, 
        "name": "泉西原"
    }, 
    "b_1867": {
        "coordinates": {
            "lat": 38.373572597198994, 
            "lon": 140.7891394349905
        }, 
        "name": "朴沢"
    }, 
    "b_1870": {
        "coordinates": {
            "lat": 38.36809947061889, 
            "lon": 140.79926690148883
        }, 
        "name": "いずみ墓園管理事務所前"
    }, 
    "b_1872": {
        "coordinates": {
            "lat": 38.36814533933882, 
            "lon": 140.80157365224764
        }, 
        "name": "墓園１６区画前"
    }, 
    "b_1874": {
        "coordinates": {
            "lat": 38.36666660559971, 
            "lon": 140.8014009569029
        }, 
        "name": "墓園３区画前"
    }, 
    "b_1876": {
        "coordinates": {
            "lat": 38.369614338681075, 
            "lon": 140.8009897442091
        }, 
        "name": "墓園１１区画前"
    }, 
    "b_1882": {
        "coordinates": {
            "lat": 38.36927744806671, 
            "lon": 140.80200856399867
        }, 
        "name": "墓園１３区画前"
    }, 
    "b_1886": {
        "coordinates": {
            "lat": 38.37077919239501, 
            "lon": 140.7997478492652
        }, 
        "name": "墓園１８区画前"
    }, 
    "b_1888": {
        "coordinates": {
            "lat": 38.37049925859336, 
            "lon": 140.80182352310575
        }, 
        "name": "墓園２３区画前"
    }, 
    "b_200": {
        "coordinates": {
            "lat": 38.26247009077376, 
            "lon": 140.871768799717
        }, 
        "name": "広瀬通一番町"
    }, 
    "b_2001": {
        "coordinates": {
            "lat": 38.274970668601675, 
            "lon": 140.8700772534763
        }, 
        "name": "堤通雨宮町"
    }, 
    "b_2003": {
        "coordinates": {
            "lat": 38.27526956574496, 
            "lon": 140.87238010401896
        }, 
        "name": "農学部前"
    }, 
    "b_2005": {
        "coordinates": {
            "lat": 38.275845688798384, 
            "lon": 140.8765916721679
        }, 
        "name": "附属小学校前"
    }, 
    "b_2007": {
        "coordinates": {
            "lat": 38.27613875822886, 
            "lon": 140.8791806103307
        }, 
        "name": "視覚支援学校前"
    }, 
    "b_2009": {
        "coordinates": {
            "lat": 38.27643155308389, 
            "lon": 140.88195120008683
        }, 
        "name": "北六番丁小学校前"
    }, 
    "b_2013": {
        "coordinates": {
            "lat": 38.27477685649155, 
            "lon": 140.88918873076543
        }, 
        "name": "福沢市民センター前"
    }, 
    "b_2014": {
        "coordinates": {
            "lat": 38.273779191174654, 
            "lon": 140.8895179160328
        }, 
        "name": "中江郵便局前"
    }, 
    "b_2015": {
        "coordinates": {
            "lat": 38.27296322616151, 
            "lon": 140.89288545171232
        }, 
        "name": "中江公園前"
    }, 
    "b_2017": {
        "coordinates": {
            "lat": 38.27298131619846, 
            "lon": 140.89497027773643
        }, 
        "name": "中江一丁目"
    }, 
    "b_2019": {
        "coordinates": {
            "lat": 38.27336635083587, 
            "lon": 140.89931101062405
        }, 
        "name": "幸町二丁目"
    }, 
    "b_2023": {
        "coordinates": {
            "lat": 38.27296145775354, 
            "lon": 140.90295267127587
        }, 
        "name": "幸町五丁目"
    }, 
    "b_2025": {
        "coordinates": {
            "lat": 38.27298733407969, 
            "lon": 140.9055724525139
        }, 
        "name": "大梶"
    }, 
    "b_2031": {
        "coordinates": {
            "lat": 38.275575269320136, 
            "lon": 140.9145315892997
        }, 
        "name": "案内公園前"
    }, 
    "b_2035": {
        "coordinates": {
            "lat": 38.27834194607818, 
            "lon": 140.91614827208366
        }, 
        "name": "東仙台"
    }, 
    "b_2037": {
        "coordinates": {
            "lat": 38.27940911713812, 
            "lon": 140.91975403459972
        }, 
        "name": "燕沢住宅前"
    }, 
    "b_2039": {
        "coordinates": {
            "lat": 38.28043099231212, 
            "lon": 140.92204574166593
        }, 
        "name": "小鶴住宅入口"
    }, 
    "b_2041": {
        "coordinates": {
            "lat": 38.28273968603155, 
            "lon": 140.9250095558827
        }, 
        "name": "市営バス東仙台営業所前"
    }, 
    "b_2099": {
        "coordinates": {
            "lat": 38.26635119634769, 
            "lon": 140.91112035289393
        }, 
        "name": "原ノ町駅・宮城野区役所前"
    }, 
    "b_2101": {
        "coordinates": {
            "lat": 38.26987581854365, 
            "lon": 140.91107408332806
        }, 
        "name": "東郵便局前"
    }, 
    "b_2103": {
        "coordinates": {
            "lat": 38.273850338580445, 
            "lon": 140.90793416108204
        }, 
        "name": "ガス局前"
    }, 
    "b_2105": {
        "coordinates": {
            "lat": 38.278559017775336, 
            "lon": 140.90885997848548
        }, 
        "name": "保健環境センター・青年会館前"
    }, 
    "b_2107": {
        "coordinates": {
            "lat": 38.2826286205264, 
            "lon": 140.9110376657941
        }, 
        "name": "安養寺三丁目"
    }, 
    "b_2109": {
        "coordinates": {
            "lat": 38.285945268917224, 
            "lon": 140.9143980673283
        }, 
        "name": "鶴ケ谷団地入口"
    }, 
    "b_211": {
        "coordinates": {
            "lat": 38.26194787422816, 
            "lon": 140.86889600679066
        }, 
        "name": "東北公済病院戦災復興記念館前"
    }, 
    "b_2111": {
        "coordinates": {
            "lat": 38.288486963054204, 
            "lon": 140.91563201448
        }, 
        "name": "鶴ケ谷八丁目"
    }, 
    "b_2113": {
        "coordinates": {
            "lat": 38.29180052382055, 
            "lon": 140.9171375701996
        }, 
        "name": "鶴ケ谷中央"
    }, 
    "b_2115": {
        "coordinates": {
            "lat": 38.293725331864486, 
            "lon": 140.91793463759495
        }, 
        "name": "鶴ケ谷五丁目東"
    }, 
    "b_2117": {
        "coordinates": {
            "lat": 38.29574232990871, 
            "lon": 140.9174515292849
        }, 
        "name": "オープン病院・教育センター前"
    }, 
    "b_2119": {
        "coordinates": {
            "lat": 38.295765040963474, 
            "lon": 140.91377072281568
        }, 
        "name": "鶴谷特別支援学校前"
    }, 
    "b_2121": {
        "coordinates": {
            "lat": 38.29723404089757, 
            "lon": 140.9132207008518
        }, 
        "name": "南光台東小学校入口"
    }, 
    "b_2129": {
        "coordinates": {
            "lat": 38.29684090148327, 
            "lon": 140.9060124287062
        }, 
        "name": "南光台南三丁目北"
    }, 
    "b_213": {
        "coordinates": {
            "lat": 38.26107593861914, 
            "lon": 140.86406255946497
        }, 
        "name": "立町小学校前"
    }, 
    "b_2131": {
        "coordinates": {
            "lat": 38.29789961420024, 
            "lon": 140.90240962361003
        }, 
        "name": "南光台南一丁目"
    }, 
    "b_2135": {
        "coordinates": {
            "lat": 38.29843449809435, 
            "lon": 140.89903793455161
        }, 
        "name": "南光台小学校前"
    }, 
    "b_2137": {
        "coordinates": {
            "lat": 38.297946734097565, 
            "lon": 140.89684008398555
        }, 
        "name": "南光台四丁目南"
    }, 
    "b_215": {
        "coordinates": {
            "lat": 38.262263768877155, 
            "lon": 140.85843797188613
        }, 
        "name": "仲の瀬橋"
    }, 
    "b_2151": {
        "coordinates": {
            "lat": 38.295792571398266, 
            "lon": 140.88387625981156
        }, 
        "name": "地下鉄旭ケ丘駅"
    }, 
    "b_2153": {
        "coordinates": {
            "lat": 38.299908240928126, 
            "lon": 140.88379802124047
        }, 
        "name": "科学館前"
    }, 
    "b_2155": {
        "coordinates": {
            "lat": 38.301283064551754, 
            "lon": 140.88211920846928
        }, 
        "name": "北根黒松南"
    }, 
    "b_217": {
        "coordinates": {
            "lat": 38.2619068221254, 
            "lon": 140.8561201252619
        }, 
        "name": "二高・宮城県美術館前"
    }, 
    "b_219": {
        "coordinates": {
            "lat": 38.261216803691575, 
            "lon": 140.85083948447632
        }, 
        "name": "川内郵便局前"
    }, 
    "b_2201": {
        "coordinates": {
            "lat": 38.27949553601406, 
            "lon": 140.89019454106509
        }, 
        "name": "小松島小学校前"
    }, 
    "b_2203": {
        "coordinates": {
            "lat": 38.2785887679412, 
            "lon": 140.89473920538853
        }, 
        "name": "幸町一丁目"
    }, 
    "b_221": {
        "coordinates": {
            "lat": 38.26113872124559, 
            "lon": 140.8488218778544
        }, 
        "name": "川内亀岡"
    }, 
    "b_2211": {
        "coordinates": {
            "lat": 38.28138119668171, 
            "lon": 140.8918562606767
        }, 
        "name": "高松入口"
    }, 
    "b_2213": {
        "coordinates": {
            "lat": 38.2809193556933, 
            "lon": 140.8949510249256
        }, 
        "name": "高松二丁目"
    }, 
    "b_2215": {
        "coordinates": {
            "lat": 38.280337522876984, 
            "lon": 140.89777887242246
        }, 
        "name": "高松三丁目"
    }, 
    "b_2217": {
        "coordinates": {
            "lat": 38.27914575652264, 
            "lon": 140.90067674218955
        }, 
        "name": "与兵衛沼入口"
    }, 
    "b_2220": {
        "coordinates": {
            "lat": 38.27595412435969, 
            "lon": 140.89901091638802
        }, 
        "name": "幸町小学校前"
    }, 
    "b_2221": {
        "coordinates": {
            "lat": 38.27774672169812, 
            "lon": 140.89965772457236
        }, 
        "name": "二の森"
    }, 
    "b_2222": {
        "coordinates": {
            "lat": 38.27813172563285, 
            "lon": 140.90224054789857
        }, 
        "name": "二の森東"
    }, 
    "b_2223": {
        "coordinates": {
            "lat": 38.27816174844571, 
            "lon": 140.9037304227834
        }, 
        "name": "青葉病院・幸町市民センター入口"
    }, 
    "b_2225": {
        "coordinates": {
            "lat": 38.278572944666855, 
            "lon": 140.91112090118776
        }, 
        "name": "公済病院宮城野分院前"
    }, 
    "b_2227": {
        "coordinates": {
            "lat": 38.278597976149776, 
            "lon": 140.91307657095186
        }, 
        "name": "光ケ丘"
    }, 
    "b_223": {
        "coordinates": {
            "lat": 38.26277655009229, 
            "lon": 140.84587204741842
        }, 
        "name": "川内亀岡公園前"
    }, 
    "b_2240": {
        "coordinates": {
            "lat": 38.27982962090199, 
            "lon": 140.90346120167516
        }, 
        "name": "枡江小学校前"
    }, 
    "b_2241": {
        "coordinates": {
            "lat": 38.283771159002534, 
            "lon": 140.90433400325037
        }, 
        "name": "安養寺配水所前"
    }, 
    "b_2243": {
        "coordinates": {
            "lat": 38.284717152181024, 
            "lon": 140.90337515043342
        }, 
        "name": "安養寺二丁目中"
    }, 
    "b_2245": {
        "coordinates": {
            "lat": 38.28662885761765, 
            "lon": 140.90139828213827
        }, 
        "name": "安養寺二丁目"
    }, 
    "b_2247": {
        "coordinates": {
            "lat": 38.28612884974064, 
            "lon": 140.89788554133636
        }, 
        "name": "与兵衛沼公園前"
    }, 
    "b_2249": {
        "coordinates": {
            "lat": 38.28778665575352, 
            "lon": 140.89375080838565
        }, 
        "name": "小松島新堤橋"
    }, 
    "b_225": {
        "coordinates": {
            "lat": 38.26421525431657, 
            "lon": 140.84410990529284
        }, 
        "name": "川内三十人町"
    }, 
    "b_226": {
        "coordinates": {
            "lat": 38.26560703164269, 
            "lon": 140.84306492799044
        }, 
        "name": "交通公園・三居沢水力発電所前"
    }, 
    "b_227": {
        "coordinates": {
            "lat": 38.267212936333564, 
            "lon": 140.84108112990754
        }, 
        "name": "市営バス川内営業所前"
    }, 
    "b_229": {
        "coordinates": {
            "lat": 38.26734908426572, 
            "lon": 140.84402282377778
        }, 
        "name": "牛越橋"
    }, 
    "b_231": {
        "coordinates": {
            "lat": 38.267338029616496, 
            "lon": 140.8471875614582
        }, 
        "name": "角五郎二丁目"
    }, 
    "b_2311": {
        "coordinates": {
            "lat": 38.28913758535902, 
            "lon": 140.89163203325316
        }, 
        "name": "南光台入口"
    }, 
    "b_2313": {
        "coordinates": {
            "lat": 38.29097325378032, 
            "lon": 140.89343152150298
        }, 
        "name": "南光台一丁目"
    }, 
    "b_2315": {
        "coordinates": {
            "lat": 38.29335802395946, 
            "lon": 140.89487740272406
        }, 
        "name": "南光台二丁目"
    }, 
    "b_2317": {
        "coordinates": {
            "lat": 38.294462028822146, 
            "lon": 140.8923745041961
        }, 
        "name": "南光台集会所前"
    }, 
    "b_2319": {
        "coordinates": {
            "lat": 38.29787249366545, 
            "lon": 140.89216242032424
        }, 
        "name": "南光台三丁目"
    }, 
    "b_2321": {
        "coordinates": {
            "lat": 38.30024335318003, 
            "lon": 140.89227646834894
        }, 
        "name": "南光台四丁目"
    }, 
    "b_2323": {
        "coordinates": {
            "lat": 38.29489719785801, 
            "lon": 140.90471651472077
        }, 
        "name": "南光台南三郵便局前"
    }, 
    "b_2325": {
        "coordinates": {
            "lat": 38.294329985164644, 
            "lon": 140.90178872843353
        }, 
        "name": "南光台南二丁目"
    }, 
    "b_2327": {
        "coordinates": {
            "lat": 38.294967937692846, 
            "lon": 140.89979692003132
        }, 
        "name": "南光台南一丁目中"
    }, 
    "b_2329": {
        "coordinates": {
            "lat": 38.29659579577946, 
            "lon": 140.89846001165833
        }, 
        "name": "南光台商工会館前"
    }, 
    "b_233": {
        "coordinates": {
            "lat": 38.266907004188084, 
            "lon": 140.84945350423214
        }, 
        "name": "ドミニコ学院前"
    }, 
    "b_2331": {
        "coordinates": {
            "lat": 38.296605744360285, 
            "lon": 140.89557719505999
        }, 
        "name": "南光台三丁目東"
    }, 
    "b_2333": {
        "coordinates": {
            "lat": 38.29549972933451, 
            "lon": 140.89430540716478
        }, 
        "name": "南光台三丁目南"
    }, 
    "b_2335": {
        "coordinates": {
            "lat": 38.294154818238574, 
            "lon": 140.89115961923724
        }, 
        "name": "南光台三丁目公園前"
    }, 
    "b_2341": {
        "coordinates": {
            "lat": 38.30283614890626, 
            "lon": 140.8932782102098
        }, 
        "name": "南光台五丁目"
    }, 
    "b_2343": {
        "coordinates": {
            "lat": 38.30451793199313, 
            "lon": 140.89433887801502
        }, 
        "name": "南光台五丁目東"
    }, 
    "b_235": {
        "coordinates": {
            "lat": 38.266560123200584, 
            "lon": 140.850962283791
        }, 
        "name": "角五郎一丁目"
    }, 
    "b_2351": {
        "coordinates": {
            "lat": 38.30452494553632, 
            "lon": 140.89833771225915
        }, 
        "name": "南光台六丁目"
    }, 
    "b_2353": {
        "coordinates": {
            "lat": 38.30379312051561, 
            "lon": 140.90069338365427
        }, 
        "name": "南光台中学校前"
    }, 
    "b_2355": {
        "coordinates": {
            "lat": 38.30281625383545, 
            "lon": 140.89916355568664
        }, 
        "name": "南光台六丁目東"
    }, 
    "b_2356": {
        "coordinates": {
            "lat": 38.30206906911053, 
            "lon": 140.8967349029006
        }, 
        "name": "南光台六丁目南"
    }, 
    "b_2357": {
        "coordinates": {
            "lat": 38.30135919114999, 
            "lon": 140.89937471635406
        }, 
        "name": "南光台小学校入口"
    }, 
    "b_2359": {
        "coordinates": {
            "lat": 38.301040417680596, 
            "lon": 140.90403045548874
        }, 
        "name": "南光台七丁目"
    }, 
    "b_237": {
        "coordinates": {
            "lat": 38.26742316669943, 
            "lon": 140.85555686247508
        }, 
        "name": "尚絅学院中学高校前"
    }, 
    "b_2371": {
        "coordinates": {
            "lat": 38.30719957759228, 
            "lon": 140.893651033881
        }, 
        "name": "八乙女小学校前"
    }, 
    "b_2375": {
        "coordinates": {
            "lat": 38.31014425091879, 
            "lon": 140.89298067618316
        }, 
        "name": "八乙女二丁目"
    }, 
    "b_2381": {
        "coordinates": {
            "lat": 38.31121405370293, 
            "lon": 140.88824102054636
        }, 
        "name": "八乙女中央五丁目"
    }, 
    "b_239": {
        "coordinates": {
            "lat": 38.267974151094336, 
            "lon": 140.85167632604575
        }, 
        "name": "宮城一高前"
    }, 
    "b_2391": {
        "coordinates": {
            "lat": 38.31409484557501, 
            "lon": 140.88760510737393
        }, 
        "name": "八乙女中央三丁目"
    }, 
    "b_2393": {
        "coordinates": {
            "lat": 38.311594041305106, 
            "lon": 140.88985809097517
        }, 
        "name": "八乙女一丁目"
    }, 
    "b_2395": {
        "coordinates": {
            "lat": 38.310897237480695, 
            "lon": 140.89364169772446
        }, 
        "name": "八乙女四丁目"
    }, 
    "b_241": {
        "coordinates": {
            "lat": 38.26824595971047, 
            "lon": 140.84556459888097
        }, 
        "name": "八幡三丁目"
    }, 
    "b_2411": {
        "coordinates": {
            "lat": 38.26710257834586, 
            "lon": 140.88352149924387
        }, 
        "name": "宮町一丁目"
    }, 
    "b_2413": {
        "coordinates": {
            "lat": 38.270398343962306, 
            "lon": 140.88392353631798
        }, 
        "name": "宮町二丁目"
    }, 
    "b_2415": {
        "coordinates": {
            "lat": 38.27331998138654, 
            "lon": 140.8842372646201
        }, 
        "name": "宮町三丁目"
    }, 
    "b_2417": {
        "coordinates": {
            "lat": 38.27612887452195, 
            "lon": 140.88577784066962
        }, 
        "name": "宮町五丁目・東照宮駅入口"
    }, 
    "b_2419": {
        "coordinates": {
            "lat": 38.279174390034974, 
            "lon": 140.88623182939685
        }, 
        "name": "東照宮一丁目"
    }, 
    "b_2421": {
        "coordinates": {
            "lat": 38.28172331064751, 
            "lon": 140.88775353009592
        }, 
        "name": "小松島三丁目"
    }, 
    "b_2423": {
        "coordinates": {
            "lat": 38.28719275839541, 
            "lon": 140.88962923358127
        }, 
        "name": "東北薬科大・東北高校前"
    }, 
    "b_2425": {
        "coordinates": {
            "lat": 38.29000824899165, 
            "lon": 140.88724819056944
        }, 
        "name": "旭ケ丘一丁目東"
    }, 
    "b_2431": {
        "coordinates": {
            "lat": 38.28970235919892, 
            "lon": 140.88214279531977
        }, 
        "name": "旭ケ丘一丁目北"
    }, 
    "b_2441": {
        "coordinates": {
            "lat": 38.288423260652245, 
            "lon": 140.87821012526723
        }, 
        "name": "地下鉄台原駅"
    }, 
    "b_245": {
        "coordinates": {
            "lat": 38.265240356899824, 
            "lon": 140.8562599601503
        }, 
        "name": "澱橋通"
    }, 
    "b_2451": {
        "coordinates": {
            "lat": 38.28890440795839, 
            "lon": 140.88322857522314
        }, 
        "name": "旭ケ丘一丁目西"
    }, 
    "b_2453": {
        "coordinates": {
            "lat": 38.28551474280449, 
            "lon": 140.8816419186321
        }, 
        "name": "瞑想の松"
    }, 
    "b_2455": {
        "coordinates": {
            "lat": 38.285239719455056, 
            "lon": 140.87862107106358
        }, 
        "name": "職業能力開発校前"
    }, 
    "b_2457": {
        "coordinates": {
            "lat": 38.28332184315487, 
            "lon": 140.87713933798773
        }, 
        "name": "台原"
    }, 
    "b_2459": {
        "coordinates": {
            "lat": 38.283607885963555, 
            "lon": 140.87498061520748
        }, 
        "name": "労災病院前"
    }, 
    "b_251": {
        "coordinates": {
            "lat": 38.25848423081331, 
            "lon": 140.86173981615087
        }, 
        "name": "大橋"
    }, 
    "b_2519": {
        "coordinates": {
            "lat": 38.29206815637045, 
            "lon": 140.89455943296977
        }, 
        "name": "南光台保育園入口"
    }, 
    "b_2521": {
        "coordinates": {
            "lat": 38.29131248033185, 
            "lon": 140.89893715975555
        }, 
        "name": "自由ケ丘"
    }, 
    "b_2523": {
        "coordinates": {
            "lat": 38.29032042138843, 
            "lon": 140.9022099891867
        }, 
        "name": "自由ケ丘中央"
    }, 
    "b_2525": {
        "coordinates": {
            "lat": 38.29005355502354, 
            "lon": 140.9050458770682
        }, 
        "name": "鶴ケ谷四丁目"
    }, 
    "b_2526": {
        "coordinates": {
            "lat": 38.2893347726019, 
            "lon": 140.90673965838766
        }, 
        "name": "鶴ケ谷三丁目西"
    }, 
    "b_2527": {
        "coordinates": {
            "lat": 38.28771803394139, 
            "lon": 140.90862068772657
        }, 
        "name": "鶴ケ谷三丁目三高前"
    }, 
    "b_2529": {
        "coordinates": {
            "lat": 38.286570159883375, 
            "lon": 140.91198240583924
        }, 
        "name": "鶴ケ谷二丁目"
    }, 
    "b_253": {
        "coordinates": {
            "lat": 38.257805369702474, 
            "lon": 140.85917311612786
        }, 
        "name": "博物館・国際センター前"
    }, 
    "b_2531": {
        "coordinates": {
            "lat": 38.28541231118921, 
            "lon": 140.9167351200014
        }, 
        "name": "鶴ケ谷東光台団地前"
    }, 
    "b_2533": {
        "coordinates": {
            "lat": 38.28789818090885, 
            "lon": 140.9181376668327
        }, 
        "name": "鶴ケ谷保育所入口"
    }, 
    "b_2535": {
        "coordinates": {
            "lat": 38.285125460163194, 
            "lon": 140.92032677937033
        }, 
        "name": "鶴ケ谷七丁目南"
    }, 
    "b_2537": {
        "coordinates": {
            "lat": 38.28713915762631, 
            "lon": 140.92169851716898
        }, 
        "name": "鶴ケ谷七丁目東"
    }, 
    "b_2539": {
        "coordinates": {
            "lat": 38.28998388407079, 
            "lon": 140.9234571290163
        }, 
        "name": "鶴ケ谷七丁目"
    }, 
    "b_255": {
        "coordinates": {
            "lat": 38.259407084663835, 
            "lon": 140.85584331891076
        }, 
        "name": "国際センター西"
    }, 
    "b_2565": {
        "coordinates": {
            "lat": 38.29111490957416, 
            "lon": 140.92548190878017
        }, 
        "name": "鶴ケ谷六丁目東"
    }, 
    "b_2567": {
        "coordinates": {
            "lat": 38.293206614324994, 
            "lon": 140.9245679994744
        }, 
        "name": "鶴ケ谷六丁目北"
    }, 
    "b_2569": {
        "coordinates": {
            "lat": 38.29259855004954, 
            "lon": 140.92034532260774
        }, 
        "name": "鶴ケ谷六丁目西"
    }, 
    "b_2571": {
        "coordinates": {
            "lat": 38.290128803407775, 
            "lon": 140.91972659882708
        }, 
        "name": "鶴ケ谷六丁目東小学校前"
    }, 
    "b_2573": {
        "coordinates": {
            "lat": 38.291739621446986, 
            "lon": 140.91281209889712
        }, 
        "name": "鶴ケ谷五丁目"
    }, 
    "b_2575": {
        "coordinates": {
            "lat": 38.29175039599049, 
            "lon": 140.90951237244025
        }, 
        "name": "鶴谷小学校前"
    }, 
    "b_2601": {
        "coordinates": {
            "lat": 38.29307326214053, 
            "lon": 140.9067694837654
        }, 
        "name": "鶴ケ谷四丁目中"
    }, 
    "b_2603": {
        "coordinates": {
            "lat": 38.29595912617662, 
            "lon": 140.91029600245105
        }, 
        "name": "鶴ケ谷四丁目北"
    }, 
    "b_2611": {
        "coordinates": {
            "lat": 38.296677093953214, 
            "lon": 140.9096671327291
        }, 
        "name": "南光台東一丁目"
    }, 
    "b_2613": {
        "coordinates": {
            "lat": 38.29884270871472, 
            "lon": 140.91041502645328
        }, 
        "name": "南光台東二丁目"
    }, 
    "b_2615": {
        "coordinates": {
            "lat": 38.302184317776806, 
            "lon": 140.91167671224562
        }, 
        "name": "陣ケ原"
    }, 
    "b_2617": {
        "coordinates": {
            "lat": 38.30341534519322, 
            "lon": 140.91442337189767
        }, 
        "name": "後沢"
    }, 
    "b_2619": {
        "coordinates": {
            "lat": 38.298785703434554, 
            "lon": 140.90658312509186
        }, 
        "name": "南光台東一丁目中央"
    }, 
    "b_2621": {
        "coordinates": {
            "lat": 38.30025941331703, 
            "lon": 140.90535926998348
        }, 
        "name": "南光台東一丁目西"
    }, 
    "b_2623": {
        "coordinates": {
            "lat": 38.30417202754681, 
            "lon": 140.9040522539224
        }, 
        "name": "松森明神"
    }, 
    "b_2625": {
        "coordinates": {
            "lat": 38.30774965313586, 
            "lon": 140.9013442585254
        }, 
        "name": "松森中道"
    }, 
    "b_2631": {
        "coordinates": {
            "lat": 38.32519315469497, 
            "lon": 140.92237365328114
        }, 
        "name": "泉松陵高校入口"
    }, 
    "b_2641": {
        "coordinates": {
            "lat": 38.30920644081897, 
            "lon": 140.9012903070368
        }, 
        "name": "後田"
    }, 
    "b_2701": {
        "coordinates": {
            "lat": 38.29245106228362, 
            "lon": 140.88833715431505
        }, 
        "name": "旭ケ丘二丁目"
    }, 
    "b_2703": {
        "coordinates": {
            "lat": 38.29456278076343, 
            "lon": 140.88833177974587
        }, 
        "name": "旭ケ丘三丁目"
    }, 
    "b_2705": {
        "coordinates": {
            "lat": 38.29767049862473, 
            "lon": 140.888028884023
        }, 
        "name": "旭ケ丘四丁目"
    }, 
    "b_2707": {
        "coordinates": {
            "lat": 38.30046213669923, 
            "lon": 140.88758379244157
        }, 
        "name": "旭ケ丘四丁目北"
    }, 
    "b_2709": {
        "coordinates": {
            "lat": 38.30180395539719, 
            "lon": 140.8886014239196
        }, 
        "name": "旭丘堤二丁目"
    }, 
    "b_2721": {
        "coordinates": {
            "lat": 38.30609574740126, 
            "lon": 140.89025220031218
        }, 
        "name": "東黒松団地入口"
    }, 
    "b_2723": {
        "coordinates": {
            "lat": 38.308409376279606, 
            "lon": 140.8895340978593
        }, 
        "name": "東黒松団地"
    }, 
    "b_3": {
        "coordinates": {
            "lat": 38.26543157409829, 
            "lon": 140.86350434970538
        }, 
        "name": "市民会館前"
    }, 
    "b_3001": {
        "coordinates": {
            "lat": 38.2683091191028, 
            "lon": 140.9155068428884
        }, 
        "name": "苦竹一丁目"
    }, 
    "b_3003": {
        "coordinates": {
            "lat": 38.2692621604517, 
            "lon": 140.92052943743755
        }, 
        "name": "苦竹駅前"
    }, 
    "b_3005": {
        "coordinates": {
            "lat": 38.2697452544393, 
            "lon": 140.9256878756779
        }, 
        "name": "東警察署入口"
    }, 
    "b_3007": {
        "coordinates": {
            "lat": 38.26976116512326, 
            "lon": 140.93021361019825
        }, 
        "name": "日の出町一丁目"
    }, 
    "b_3009": {
        "coordinates": {
            "lat": 38.26930738998643, 
            "lon": 140.93394720990997
        }, 
        "name": "日の出町二丁目"
    }, 
    "b_3011": {
        "coordinates": {
            "lat": 38.26857347035193, 
            "lon": 140.94359560908043
        }, 
        "name": "扇町二丁目・小鶴老人福祉センター入口"
    }, 
    "b_3013": {
        "coordinates": {
            "lat": 38.26979453670077, 
            "lon": 140.94851014470657
        }, 
        "name": "扇町五丁目"
    }, 
    "b_3015": {
        "coordinates": {
            "lat": 38.270469545086485, 
            "lon": 140.95312361936865
        }, 
        "name": "扇町六丁目"
    }, 
    "b_3017": {
        "coordinates": {
            "lat": 38.27190256050951, 
            "lon": 140.959601070992
        }, 
        "name": "福田町"
    }, 
    "b_3021": {
        "coordinates": {
            "lat": 38.276694295732405, 
            "lon": 140.9769652416029
        }, 
        "name": "誓渡寺前"
    }, 
    "b_3023": {
        "coordinates": {
            "lat": 38.278467168839306, 
            "lon": 140.97737623694618
        }, 
        "name": "栄一丁目"
    }, 
    "b_3025": {
        "coordinates": {
            "lat": 38.2734106120758, 
            "lon": 140.9686071980449
        }, 
        "name": "陸前高砂駅"
    }, 
    "b_303": {
        "coordinates": {
            "lat": 38.25723462052305, 
            "lon": 140.87639865628796
        }, 
        "name": "仙台逓信病院前"
    }, 
    "b_3047": {
        "coordinates": {
            "lat": 38.28075202692169, 
            "lon": 140.93553460664535
        }, 
        "name": "仙台市民球場前"
    }, 
    "b_3049": {
        "coordinates": {
            "lat": 38.27913212180129, 
            "lon": 140.93104699837292
        }, 
        "name": "新田東一丁目"
    }, 
    "b_305": {
        "coordinates": {
            "lat": 38.25527596130825, 
            "lon": 140.87755365055665
        }, 
        "name": "中央郵便局前"
    }, 
    "b_3051": {
        "coordinates": {
            "lat": 38.27358195739942, 
            "lon": 140.93535689600688
        }, 
        "name": "小鶴新田駅"
    }, 
    "b_3053": {
        "coordinates": {
            "lat": 38.27689740194771, 
            "lon": 140.93340107243748
        }, 
        "name": "元気フィールド仙台前"
    }, 
    "b_3055": {
        "coordinates": {
            "lat": 38.275682474838035, 
            "lon": 140.93013445522607
        }, 
        "name": "新田小学校入口"
    }, 
    "b_3057": {
        "coordinates": {
            "lat": 38.26441113138947, 
            "lon": 140.94322972001825
        }, 
        "name": "扇町三丁目"
    }, 
    "b_3059": {
        "coordinates": {
            "lat": 38.25959552855049, 
            "lon": 140.94283997412913
        }, 
        "name": "卸町東一丁目"
    }, 
    "b_3061": {
        "coordinates": {
            "lat": 38.25773767164606, 
            "lon": 140.94283617110437
        }, 
        "name": "卸町東二丁目"
    }, 
    "b_3063": {
        "coordinates": {
            "lat": 38.26730337018643, 
            "lon": 140.93008373415782
        }, 
        "name": "宮城野消防署前"
    }, 
    "b_3065": {
        "coordinates": {
            "lat": 38.26493973420278, 
            "lon": 140.9300888425713
        }, 
        "name": "産業技術総合研究所前"
    }, 
    "b_307": {
        "coordinates": {
            "lat": 38.257109718504886, 
            "lon": 140.8812432596994
        }, 
        "name": "ＪＲ東日本前"
    }, 
    "b_309": {
        "coordinates": {
            "lat": 38.25324508775063, 
            "lon": 140.87871753630102
        }, 
        "name": "五橋"
    }, 
    "b_3101": {
        "coordinates": {
            "lat": 38.27213370322749, 
            "lon": 140.9151178101986
        }, 
        "name": "平成二丁目"
    }, 
    "b_3103": {
        "coordinates": {
            "lat": 38.27342557023925, 
            "lon": 140.91859551744747
        }, 
        "name": "新田一丁目"
    }, 
    "b_3105": {
        "coordinates": {
            "lat": 38.274417436062215, 
            "lon": 140.92016811894993
        }, 
        "name": "新田一丁目東"
    }, 
    "b_3107": {
        "coordinates": {
            "lat": 38.2746474637684, 
            "lon": 140.92316285964742
        }, 
        "name": "新田二丁目"
    }, 
    "b_3109": {
        "coordinates": {
            "lat": 38.27657535959206, 
            "lon": 140.92582366100805
        }, 
        "name": "新田二丁目東"
    }, 
    "b_311": {
        "coordinates": {
            "lat": 38.251631407704956, 
            "lon": 140.880792438287
        }, 
        "name": "福祉プラザ前"
    }, 
    "b_313": {
        "coordinates": {
            "lat": 38.24749574496145, 
            "lon": 140.88113676679131
        }, 
        "name": "愛宕大橋"
    }, 
    "b_315": {
        "coordinates": {
            "lat": 38.24540602670998, 
            "lon": 140.88447047504349
        }, 
        "name": "石垣町"
    }, 
    "b_3159": {
        "coordinates": {
            "lat": 38.26395579395613, 
            "lon": 140.9847343496188
        }, 
        "name": "白鳥二丁目東"
    }, 
    "b_3161": {
        "coordinates": {
            "lat": 38.26694948316961, 
            "lon": 140.99163474980827
        }, 
        "name": "キリンビール前"
    }, 
    "b_317": {
        "coordinates": {
            "lat": 38.242348344250516, 
            "lon": 140.8871065080308
        }, 
        "name": "舟丁"
    }, 
    "b_319": {
        "coordinates": {
            "lat": 38.2406316160376, 
            "lon": 140.88897337648325
        }, 
        "name": "河原町"
    }, 
    "b_3205": {
        "coordinates": {
            "lat": 38.28112555584592, 
            "lon": 140.96492214883685
        }, 
        "name": "田子小学校入口"
    }, 
    "b_3207": {
        "coordinates": {
            "lat": 38.284261326189466, 
            "lon": 140.96461508550166
        }, 
        "name": "田子三丁目"
    }, 
    "b_3209": {
        "coordinates": {
            "lat": 38.28502508248744, 
            "lon": 140.96170112566824
        }, 
        "name": "田子公会堂前"
    }, 
    "b_3211": {
        "coordinates": {
            "lat": 38.28681097419981, 
            "lon": 140.96007645613884
        }, 
        "name": "上田子"
    }, 
    "b_3212": {
        "coordinates": {
            "lat": 38.288965693440794, 
            "lon": 140.95719742935495
        }, 
        "name": "田子西"
    }, 
    "b_3213": {
        "coordinates": {
            "lat": 38.29168039955934, 
            "lon": 140.95699620995154
        }, 
        "name": "田子鳥居前"
    }, 
    "b_3215": {
        "coordinates": {
            "lat": 38.292989097521044, 
            "lon": 140.95407944748027
        }, 
        "name": "余目"
    }, 
    "b_3220": {
        "coordinates": {
            "lat": 38.28253439712825, 
            "lon": 140.95492097010862
        }, 
        "name": "宮城野高校入口"
    }, 
    "b_3221": {
        "coordinates": {
            "lat": 38.286404024674795, 
            "lon": 140.95729365043147
        }, 
        "name": "田子西中央"
    }, 
    "b_3222": {
        "coordinates": {
            "lat": 38.288009671400445, 
            "lon": 140.95644253606983
        }, 
        "name": "田子西市営住宅前"
    }, 
    "b_3231": {
        "coordinates": {
            "lat": 38.28014754583112, 
            "lon": 140.96154053026692
        }, 
        "name": "田子小学校前"
    }, 
    "b_3233": {
        "coordinates": {
            "lat": 38.28337831322803, 
            "lon": 140.9616464838124
        }, 
        "name": "福田町第二市営住宅前"
    }, 
    "b_3249": {
        "coordinates": {
            "lat": 38.2814568278255, 
            "lon": 140.97616036692568
        }, 
        "name": "中野中学校前"
    }, 
    "b_3251": {
        "coordinates": {
            "lat": 38.283946481146785, 
            "lon": 140.9715584122512
        }, 
        "name": "福室希望園前"
    }, 
    "b_3253": {
        "coordinates": {
            "lat": 38.284976419698296, 
            "lon": 140.97434729987793
        }, 
        "name": "沼田"
    }, 
    "b_3255": {
        "coordinates": {
            "lat": 38.28457346325561, 
            "lon": 140.97755399656398
        }, 
        "name": "高橋"
    }, 
    "b_3257": {
        "coordinates": {
            "lat": 38.28295962372967, 
            "lon": 140.97049771244954
        }, 
        "name": "福室小学校入口"
    }, 
    "b_3258": {
        "coordinates": {
            "lat": 38.28463636103772, 
            "lon": 140.96890665626591
        }, 
        "name": "高砂市営住宅西"
    }, 
    "b_3401": {
        "coordinates": {
            "lat": 38.28439654079438, 
            "lon": 140.93002100783778
        }, 
        "name": "小鶴"
    }, 
    "b_3403": {
        "coordinates": {
            "lat": 38.28683633091859, 
            "lon": 140.93294565260433
        }, 
        "name": "燕沢東"
    }, 
    "b_3405": {
        "coordinates": {
            "lat": 38.29154198790623, 
            "lon": 140.93576214646131
        }, 
        "name": "岩切一丁目南"
    }, 
    "b_3407": {
        "coordinates": {
            "lat": 38.29282879986385, 
            "lon": 140.93605706271526
        }, 
        "name": "岩切一丁目"
    }, 
    "b_3409": {
        "coordinates": {
            "lat": 38.29559268703768, 
            "lon": 140.93698074762494
        }, 
        "name": "今市上区"
    }, 
    "b_3411": {
        "coordinates": {
            "lat": 38.29944815682093, 
            "lon": 140.93977644902375
        }, 
        "name": "今市中区"
    }, 
    "b_3413": {
        "coordinates": {
            "lat": 38.30245592550562, 
            "lon": 140.94177114486808
        }, 
        "name": "岩切中学校入口"
    }, 
    "b_3415": {
        "coordinates": {
            "lat": 38.305189569769134, 
            "lon": 140.9445057918827
        }, 
        "name": "今市橋"
    }, 
    "b_3423": {
        "coordinates": {
            "lat": 38.300959355146745, 
            "lon": 140.9540232518095
        }, 
        "name": "岩切駅"
    }, 
    "b_3425": {
        "coordinates": {
            "lat": 38.30405483633658, 
            "lon": 140.95281820935034
        }, 
        "name": "岩切東コミュニティセンター入口"
    }, 
    "b_3427": {
        "coordinates": {
            "lat": 38.3053468332976, 
            "lon": 140.94783356382837
        }, 
        "name": "八坂神社前"
    }, 
    "b_3431": {
        "coordinates": {
            "lat": 38.30807557362394, 
            "lon": 140.95603775682795
        }, 
        "name": "岩切分台三丁目"
    }, 
    "b_3433": {
        "coordinates": {
            "lat": 38.30885166292189, 
            "lon": 140.9595413190128
        }, 
        "name": "岩切分台二丁目"
    }, 
    "b_4": {
        "coordinates": {
            "lat": 38.26530162544266, 
            "lon": 140.86564806654425
        }, 
        "name": "メディアテーク前"
    }, 
    "b_4001": {
        "coordinates": {
            "lat": 38.259722542183546, 
            "lon": 140.88396791310737
        }, 
        "name": "仙台駅東口"
    }, 
    "b_4002": {
        "coordinates": {
            "lat": 38.2589457963043, 
            "lon": 140.8905793442451
        }, 
        "name": "榴岡四丁目"
    }, 
    "b_4003": {
        "coordinates": {
            "lat": 38.255239979431344, 
            "lon": 140.88473194495157
        }, 
        "name": "新寺一丁目"
    }, 
    "b_4004": {
        "coordinates": {
            "lat": 38.256208871911966, 
            "lon": 140.8908705571977
        }, 
        "name": "新寺二丁目"
    }, 
    "b_4005": {
        "coordinates": {
            "lat": 38.2555539357645, 
            "lon": 140.89051561683286
        }, 
        "name": "新寺三丁目"
    }, 
    "b_4006": {
        "coordinates": {
            "lat": 38.25590106354997, 
            "lon": 140.8872347622096
        }, 
        "name": "新寺三丁目西"
    }, 
    "b_4007": {
        "coordinates": {
            "lat": 38.25529012094152, 
            "lon": 140.8931404109939
        }, 
        "name": "新寺四丁目・サンプラザ入口"
    }, 
    "b_4009": {
        "coordinates": {
            "lat": 38.25410920605961, 
            "lon": 140.8971431884997
        }, 
        "name": "二軒茶屋・東華中学校前"
    }, 
    "b_401": {
        "coordinates": {
            "lat": 38.259654308632896, 
            "lon": 140.8733599083456
        }, 
        "name": "青葉通一番町"
    }, 
    "b_4011": {
        "coordinates": {
            "lat": 38.25322549776134, 
            "lon": 140.9020705977525
        }, 
        "name": "宮城野三丁目・聖和学園前"
    }, 
    "b_4013": {
        "coordinates": {
            "lat": 38.252117675644854, 
            "lon": 140.90865121336108
        }, 
        "name": "白萩町"
    }, 
    "b_4015": {
        "coordinates": {
            "lat": 38.251725853259224, 
            "lon": 140.91323973921916
        }, 
        "name": "志波町"
    }, 
    "b_4017": {
        "coordinates": {
            "lat": 38.25153704290176, 
            "lon": 140.91657947055162
        }, 
        "name": "宮千代三丁目"
    }, 
    "b_4019": {
        "coordinates": {
            "lat": 38.25051722504365, 
            "lon": 140.92076222569244
        }, 
        "name": "卸町入口"
    }, 
    "b_4021": {
        "coordinates": {
            "lat": 38.25116111838346, 
            "lon": 140.9249599029855
        }, 
        "name": "卸町二丁目"
    }, 
    "b_4023": {
        "coordinates": {
            "lat": 38.25088321656034, 
            "lon": 140.9320593261814
        }, 
        "name": "白山工業団地"
    }, 
    "b_4027": {
        "coordinates": {
            "lat": 38.25066749209259, 
            "lon": 140.93697087265974
        }, 
        "name": "六丁の目西町"
    }, 
    "b_4029": {
        "coordinates": {
            "lat": 38.25055339561652, 
            "lon": 140.940290602213
        }, 
        "name": "六丁の目南町"
    }, 
    "b_4031": {
        "coordinates": {
            "lat": 38.250402661752055, 
            "lon": 140.9450621573249
        }, 
        "name": "六丁の目中町"
    }, 
    "b_4033": {
        "coordinates": {
            "lat": 38.25023858934878, 
            "lon": 140.94945402236172
        }, 
        "name": "六丁の目北町"
    }, 
    "b_4035": {
        "coordinates": {
            "lat": 38.250147790858826, 
            "lon": 140.95089279594274
        }, 
        "name": "六丁の目東町"
    }, 
    "b_4037": {
        "coordinates": {
            "lat": 38.255094237245565, 
            "lon": 140.95266853181286
        }, 
        "name": "卸町東五丁目"
    }, 
    "b_4039": {
        "coordinates": {
            "lat": 38.25706405075626, 
            "lon": 140.95405415936756
        }, 
        "name": "卸町東五丁目北"
    }, 
    "b_4041": {
        "coordinates": {
            "lat": 38.257064120806305, 
            "lon": 140.95806493738397
        }, 
        "name": "狐塚"
    }, 
    "b_4043": {
        "coordinates": {
            "lat": 38.255686318606315, 
            "lon": 140.96413255247288
        }, 
        "name": "賀茂皇神社前"
    }, 
    "b_4045": {
        "coordinates": {
            "lat": 38.254753381838, 
            "lon": 140.96522028287436
        }, 
        "name": "上岡田"
    }, 
    "b_4047": {
        "coordinates": {
            "lat": 38.25372355200474, 
            "lon": 140.9686561560596
        }, 
        "name": "長屋前"
    }, 
    "b_4049": {
        "coordinates": {
            "lat": 38.25494155488278, 
            "lon": 140.97309878657367
        }, 
        "name": "道場"
    }, 
    "b_405": {
        "coordinates": {
            "lat": 38.258881266908666, 
            "lon": 140.86941804908727
        }, 
        "name": "晩翠草堂前"
    }, 
    "b_4053": {
        "coordinates": {
            "lat": 38.25622454535642, 
            "lon": 140.97722921780093
        }, 
        "name": "岡田"
    }, 
    "b_4055": {
        "coordinates": {
            "lat": 38.24879736193165, 
            "lon": 140.98167835696827
        }, 
        "name": "堀切"
    }, 
    "b_4057": {
        "coordinates": {
            "lat": 38.24470286351423, 
            "lon": 140.98532129851918
        }, 
        "name": "新浜西"
    }, 
    "b_4059": {
        "coordinates": {
            "lat": 38.242583134044054, 
            "lon": 140.98782896564413
        }, 
        "name": "新浜"
    }, 
    "b_4061": {
        "coordinates": {
            "lat": 38.243608052226875, 
            "lon": 140.98942100845446
        }, 
        "name": "照徳寺前"
    }, 
    "b_4063": {
        "coordinates": {
            "lat": 38.244987921818506, 
            "lon": 140.99040475210583
        }, 
        "name": "新浜浦通"
    }, 
    "b_4065": {
        "coordinates": {
            "lat": 38.248227558025704, 
            "lon": 140.98941551841943
        }, 
        "name": "市営バス岡田車庫入口"
    }, 
    "b_4066": {
        "coordinates": {
            "lat": 38.2491274333432, 
            "lon": 140.98778783438297
        }, 
        "name": "市営バス岡田車庫前"
    }, 
    "b_4067": {
        "coordinates": {
            "lat": 38.25322202133154, 
            "lon": 140.98927335580265
        }, 
        "name": "鍋沼"
    }, 
    "b_4069": {
        "coordinates": {
            "lat": 38.25521066787332, 
            "lon": 140.98757646071311
        }, 
        "name": "上屋倉"
    }, 
    "b_4071": {
        "coordinates": {
            "lat": 38.25550860093308, 
            "lon": 140.98238798900323
        }, 
        "name": "雑子袋"
    }, 
    "b_4073": {
        "coordinates": {
            "lat": 38.255569674403034, 
            "lon": 140.9806070229875
        }, 
        "name": "岡田郵便局前"
    }, 
    "b_4101": {
        "coordinates": {
            "lat": 38.25527544632833, 
            "lon": 140.91167887206726
        }, 
        "name": "宮千代一丁目"
    }, 
    "b_4103": {
        "coordinates": {
            "lat": 38.25857815934305, 
            "lon": 140.9122925579109
        }, 
        "name": "萩野町一丁目"
    }, 
    "b_4105": {
        "coordinates": {
            "lat": 38.26160591401323, 
            "lon": 140.9136073093037
        }, 
        "name": "銀杏町"
    }, 
    "b_4106": {
        "coordinates": {
            "lat": 38.26125100020052, 
            "lon": 140.91636820746737
        }, 
        "name": "宮城野小仙台工業高前"
    }, 
    "b_4107": {
        "coordinates": {
            "lat": 38.26044505636991, 
            "lon": 140.92100980354257
        }, 
        "name": "陸上自衛隊仙台駐屯地前"
    }, 
    "b_4109": {
        "coordinates": {
            "lat": 38.26111310626283, 
            "lon": 140.9247764044127
        }, 
        "name": "トラックターミナル・中税務署入口"
    }, 
    "b_411": {
        "coordinates": {
            "lat": 38.26574659524599, 
            "lon": 140.8666440744484
        }, 
        "name": "春日町"
    }, 
    "b_4115": {
        "coordinates": {
            "lat": 38.26157008528104, 
            "lon": 140.9295540421474
        }, 
        "name": "卸町四丁目北"
    }, 
    "b_4117": {
        "coordinates": {
            "lat": 38.260911362194356, 
            "lon": 140.9350125080477
        }, 
        "name": "日の出町三丁目"
    }, 
    "b_4119": {
        "coordinates": {
            "lat": 38.260794239795096, 
            "lon": 140.9400101539464
        }, 
        "name": "自動車団地入口"
    }, 
    "b_4121": {
        "coordinates": {
            "lat": 38.262194142704494, 
            "lon": 140.9430240058544
        }, 
        "name": "自動車団地"
    }, 
    "b_4123": {
        "coordinates": {
            "lat": 38.26332214345379, 
            "lon": 140.94679364084888
        }, 
        "name": "宮城運輸支局前"
    }, 
    "b_4125": {
        "coordinates": {
            "lat": 38.2655169600233, 
            "lon": 140.9497321846302
        }, 
        "name": "扇町四丁目"
    }, 
    "b_4127": {
        "coordinates": {
            "lat": 38.265711193049796, 
            "lon": 140.95472065028775
        }, 
        "name": "食肉市場入口"
    }, 
    "b_4129": {
        "coordinates": {
            "lat": 38.26496136453109, 
            "lon": 140.95994636193544
        }, 
        "name": "福田町四丁目北"
    }, 
    "b_413": {
        "coordinates": {
            "lat": 38.267707195519804, 
            "lon": 140.865307150755
        }, 
        "name": "木町通一丁目"
    }, 
    "b_4131": {
        "coordinates": {
            "lat": 38.261666717649305, 
            "lon": 140.95998762132774
        }, 
        "name": "福田町四丁目"
    }, 
    "b_4133": {
        "coordinates": {
            "lat": 38.26086073709094, 
            "lon": 140.96252633649144
        }, 
        "name": "福田町三丁目"
    }, 
    "b_4135": {
        "coordinates": {
            "lat": 38.26188566667387, 
            "lon": 140.96477110287094
        }, 
        "name": "鶴巻保育所前"
    }, 
    "b_4137": {
        "coordinates": {
            "lat": 38.26188071878078, 
            "lon": 140.96772391342608
        }, 
        "name": "鶴巻小学校前"
    }, 
    "b_415": {
        "coordinates": {
            "lat": 38.270652987978764, 
            "lon": 140.86510286540985
        }, 
        "name": "木町通小学校前"
    }, 
    "b_4201": {
        "coordinates": {
            "lat": 38.2535777310063, 
            "lon": 140.92076125151368
        }, 
        "name": "卸町一丁目"
    }, 
    "b_4203": {
        "coordinates": {
            "lat": 38.25749231596449, 
            "lon": 140.9209710538359
        }, 
        "name": "卸町会館前"
    }, 
    "b_4205": {
        "coordinates": {
            "lat": 38.25703350355285, 
            "lon": 140.92253983356585
        }, 
        "name": "卸町三丁目・能－ＢＯＸ前"
    }, 
    "b_4207": {
        "coordinates": {
            "lat": 38.25702855237556, 
            "lon": 140.92530460418217
        }, 
        "name": "卸町１０－ＢＯＸ前"
    }, 
    "b_4209": {
        "coordinates": {
            "lat": 38.25706445105335, 
            "lon": 140.92926538470104
        }, 
        "name": "配送センター前"
    }, 
    "b_4211": {
        "coordinates": {
            "lat": 38.25849736788725, 
            "lon": 140.9300980273474
        }, 
        "name": "中央卸売市場"
    }, 
    "b_4213": {
        "coordinates": {
            "lat": 38.25710061565221, 
            "lon": 140.93254899922346
        }, 
        "name": "中央卸売市場正門前"
    }, 
    "b_4215": {
        "coordinates": {
            "lat": 38.257080746258346, 
            "lon": 140.93990450038177
        }, 
        "name": "卸町東三丁目"
    }, 
    "b_4217": {
        "coordinates": {
            "lat": 38.25707281557328, 
            "lon": 140.94700474441146
        }, 
        "name": "若林体育館前"
    }, 
    "b_4219": {
        "coordinates": {
            "lat": 38.25706706761759, 
            "lon": 140.9518573972233
        }, 
        "name": "東部工場団地"
    }, 
    "b_4251": {
        "coordinates": {
            "lat": 38.25277766265229, 
            "lon": 140.95965694699092
        }, 
        "name": "南高屋敷"
    }, 
    "b_4253": {
        "coordinates": {
            "lat": 38.26178576163268, 
            "lon": 140.96959570679226
        }, 
        "name": "鶴巻"
    }, 
    "b_4255": {
        "coordinates": {
            "lat": 38.26754412674555, 
            "lon": 140.97487083687685
        }, 
        "name": "高砂大橋"
    }, 
    "b_4257": {
        "coordinates": {
            "lat": 38.27129379796945, 
            "lon": 140.97900948717222
        }, 
        "name": "中野高柳"
    }, 
    "b_4259": {
        "coordinates": {
            "lat": 38.27200811491931, 
            "lon": 140.99198726537642
        }, 
        "name": "神妻"
    }, 
    "b_4261": {
        "coordinates": {
            "lat": 38.27641147310481, 
            "lon": 140.98856845765607
        }, 
        "name": "出花団地入口"
    }, 
    "b_4263": {
        "coordinates": {
            "lat": 38.27621862754026, 
            "lon": 140.99940951064082
        }, 
        "name": "港三丁目"
    }, 
    "b_4265": {
        "coordinates": {
            "lat": 38.27342995566208, 
            "lon": 140.99475696988384
        }, 
        "name": "夢メッセみやぎ前"
    }, 
    "b_4271": {
        "coordinates": {
            "lat": 38.27360775407236, 
            "lon": 140.98112420499663
        }, 
        "name": "６号公園住宅前"
    }, 
    "b_4303": {
        "coordinates": {
            "lat": 38.259318724605066, 
            "lon": 140.9014803661974
        }, 
        "name": "宮城野原総合運動場前"
    }, 
    "b_4305": {
        "coordinates": {
            "lat": 38.26146352831099, 
            "lon": 140.90337622109828
        }, 
        "name": "育英学園前"
    }, 
    "b_4307": {
        "coordinates": {
            "lat": 38.26002598495326, 
            "lon": 140.90799395934906
        }, 
        "name": "国立病院前"
    }, 
    "b_4309": {
        "coordinates": {
            "lat": 38.25995990464438, 
            "lon": 140.90935273843536
        }, 
        "name": "仙台東年金事務所前"
    }, 
    "b_45": {
        "coordinates": {
            "lat": 38.26267911461925, 
            "lon": 140.88077498658095
        }, 
        "name": "仙台駅北口"
    }, 
    "b_5": {
        "coordinates": {
            "lat": 38.25865621891886, 
            "lon": 140.86529256873405
        }, 
        "name": "大町西公園前"
    }, 
    "b_50": {
        "coordinates": {
            "lat": 38.26089234794797, 
            "lon": 140.88001124339502
        }, 
        "name": "仙台駅前"
    }, 
    "b_5001": {
        "coordinates": {
            "lat": 38.252081434585335, 
            "lon": 140.88508706090022
        }, 
        "name": "五橋三丁目"
    }, 
    "b_5003": {
        "coordinates": {
            "lat": 38.25137050043553, 
            "lon": 140.89086466936683
        }, 
        "name": "連坊一丁目"
    }, 
    "b_5005": {
        "coordinates": {
            "lat": 38.25102058765982, 
            "lon": 140.89371555982643
        }, 
        "name": "仙台一高前"
    }, 
    "b_5007": {
        "coordinates": {
            "lat": 38.24943080636211, 
            "lon": 140.89650123501625
        }, 
        "name": "木ノ下一丁目"
    }, 
    "b_5009": {
        "coordinates": {
            "lat": 38.24951780743445, 
            "lon": 140.90027591752616
        }, 
        "name": "木ノ下四丁目"
    }, 
    "b_5011": {
        "coordinates": {
            "lat": 38.24954478116976, 
            "lon": 140.90211798552426
        }, 
        "name": "薬師堂"
    }, 
    "b_5013": {
        "coordinates": {
            "lat": 38.249314059509324, 
            "lon": 140.90709841586133
        }, 
        "name": "大和町一丁目"
    }, 
    "b_5015": {
        "coordinates": {
            "lat": 38.248916138211804, 
            "lon": 140.91234799821126
        }, 
        "name": "大和町二丁目・ＮＴＴ東北病院入口"
    }, 
    "b_5017": {
        "coordinates": {
            "lat": 38.248720128811826, 
            "lon": 140.916970678883
        }, 
        "name": "大和小学校入口"
    }, 
    "b_5019": {
        "coordinates": {
            "lat": 38.24859740878565, 
            "lon": 140.91952547236056
        }, 
        "name": "大和小学校東"
    }, 
    "b_5021": {
        "coordinates": {
            "lat": 38.24700349501123, 
            "lon": 140.92424320950687
        }, 
        "name": "蒲の町歩道橋前"
    }, 
    "b_5041": {
        "coordinates": {
            "lat": 38.249128654885915, 
            "lon": 140.8827984980403
        }, 
        "name": "東七番丁・荒町市民センター前"
    }, 
    "b_5043": {
        "coordinates": {
            "lat": 38.24889759984002, 
            "lon": 140.884593359618
        }, 
        "name": "東八番丁"
    }, 
    "b_5045": {
        "coordinates": {
            "lat": 38.24839768736982, 
            "lon": 140.88654322070317
        }, 
        "name": "荒町"
    }, 
    "b_5047": {
        "coordinates": {
            "lat": 38.24715400273401, 
            "lon": 140.8906209948709
        }, 
        "name": "三百人町西"
    }, 
    "b_5049": {
        "coordinates": {
            "lat": 38.24637610689836, 
            "lon": 140.89500150022678
        }, 
        "name": "三百人町"
    }, 
    "b_5051": {
        "coordinates": {
            "lat": 38.24522824714628, 
            "lon": 140.8991823169801
        }, 
        "name": "保春院前丁"
    }, 
    "b_5053": {
        "coordinates": {
            "lat": 38.24496136699938, 
            "lon": 140.90122910372972
        }, 
        "name": "若林区役所前"
    }, 
    "b_5055": {
        "coordinates": {
            "lat": 38.244581439565536, 
            "lon": 140.90305702497253
        }, 
        "name": "一本杉町"
    }, 
    "b_5056": {
        "coordinates": {
            "lat": 38.243608561043835, 
            "lon": 140.90723477836733
        }, 
        "name": "一本杉町東"
    }, 
    "b_5057": {
        "coordinates": {
            "lat": 38.243404720035585, 
            "lon": 140.9087277193217
        }, 
        "name": "中倉一丁目"
    }, 
    "b_5059": {
        "coordinates": {
            "lat": 38.24313374724445, 
            "lon": 140.9149872119539
        }, 
        "name": "遠見塚三丁目"
    }, 
    "b_5061": {
        "coordinates": {
            "lat": 38.243621811270465, 
            "lon": 140.91846078989155
        }, 
        "name": "中倉二丁目"
    }, 
    "b_5063": {
        "coordinates": {
            "lat": 38.24207311344536, 
            "lon": 140.91991574037175
        }, 
        "name": "蒲の町"
    }, 
    "b_5065": {
        "coordinates": {
            "lat": 38.24408081338966, 
            "lon": 140.9277538858617
        }, 
        "name": "中屋敷"
    }, 
    "b_5067": {
        "coordinates": {
            "lat": 38.243675138829325, 
            "lon": 140.93435946706532
        }, 
        "name": "札屋敷"
    }, 
    "b_5069": {
        "coordinates": {
            "lat": 38.243480210048816, 
            "lon": 140.93724312544478
        }, 
        "name": "十文字"
    }, 
    "b_5071": {
        "coordinates": {
            "lat": 38.240397621371805, 
            "lon": 140.9450956707968
        }, 
        "name": "七郷小学校前"
    }, 
    "b_5073": {
        "coordinates": {
            "lat": 38.23825286223788, 
            "lon": 140.94575182617396
        }, 
        "name": "七郷中学校前"
    }, 
    "b_5075": {
        "coordinates": {
            "lat": 38.236553081304564, 
            "lon": 140.94788478285878
        }, 
        "name": "一本松"
    }, 
    "b_5077": {
        "coordinates": {
            "lat": 38.229269026149275, 
            "lon": 140.9573732191487
        }, 
        "name": "神屋敷"
    }, 
    "b_5079": {
        "coordinates": {
            "lat": 38.22748322406603, 
            "lon": 140.9641296847052
        }, 
        "name": "笹新田西"
    }, 
    "b_5081": {
        "coordinates": {
            "lat": 38.226919431232886, 
            "lon": 140.96617648512554
        }, 
        "name": "笹新田"
    }, 
    "b_5083": {
        "coordinates": {
            "lat": 38.225418528832286, 
            "lon": 140.96893438075207
        }, 
        "name": "石場"
    }, 
    "b_5085": {
        "coordinates": {
            "lat": 38.222853088602115, 
            "lon": 140.97573004561954
        }, 
        "name": "南長沼"
    }, 
    "b_5111": {
        "coordinates": {
            "lat": 38.24304421718219, 
            "lon": 140.9413428050462
        }, 
        "name": "七郷市民センター前"
    }, 
    "b_5113": {
        "coordinates": {
            "lat": 38.24252237281638, 
            "lon": 140.94387678529733
        }, 
        "name": "荒井"
    }, 
    "b_5117": {
        "coordinates": {
            "lat": 38.23919167854828, 
            "lon": 140.94734553947697
        }, 
        "name": "揚戸"
    }, 
    "b_5121": {
        "coordinates": {
            "lat": 38.23844179126323, 
            "lon": 140.94920653056434
        }, 
        "name": "広瀬"
    }, 
    "b_5123": {
        "coordinates": {
            "lat": 38.23727200624701, 
            "lon": 140.95435115717257
        }, 
        "name": "南原田"
    }, 
    "b_5125": {
        "coordinates": {
            "lat": 38.23602223701494, 
            "lon": 140.95990964198214
        }, 
        "name": "四ツ谷"
    }, 
    "b_5127": {
        "coordinates": {
            "lat": 38.23611344397101, 
            "lon": 140.96595524681146
        }, 
        "name": "農業園芸センター前"
    }, 
    "b_5153": {
        "coordinates": {
            "lat": 38.24507003125456, 
            "lon": 140.88903427816194
        }, 
        "name": "穀町"
    }, 
    "b_5155": {
        "coordinates": {
            "lat": 38.24282832256936, 
            "lon": 140.88880440047646
        }, 
        "name": "南材橋"
    }, 
    "b_5159": {
        "coordinates": {
            "lat": 38.23984789317315, 
            "lon": 140.89367913287344
        }, 
        "name": "河原町二丁目"
    }, 
    "b_5161": {
        "coordinates": {
            "lat": 38.23775010052731, 
            "lon": 140.89588487961805
        }, 
        "name": "古城一丁目"
    }, 
    "b_5163": {
        "coordinates": {
            "lat": 38.23734213459698, 
            "lon": 140.89851773530282
        }, 
        "name": "古城二丁目"
    }, 
    "b_5165": {
        "coordinates": {
            "lat": 38.23883700474481, 
            "lon": 140.90023752364206
        }, 
        "name": "南小泉三丁目中"
    }, 
    "b_5201": {
        "coordinates": {
            "lat": 38.242480559857945, 
            "lon": 140.90344014544894
        }, 
        "name": "若林区文化センター入口"
    }, 
    "b_5203": {
        "coordinates": {
            "lat": 38.24099487553337, 
            "lon": 140.90287331649003
        }, 
        "name": "南小泉二丁目"
    }, 
    "b_5205": {
        "coordinates": {
            "lat": 38.23837015686895, 
            "lon": 140.90290732341444
        }, 
        "name": "南小泉三丁目"
    }, 
    "b_5207": {
        "coordinates": {
            "lat": 38.23736113218746, 
            "lon": 140.9048572079406
        }, 
        "name": "南小泉四丁目"
    }, 
    "b_5209": {
        "coordinates": {
            "lat": 38.234464478307466, 
            "lon": 140.9037543773556
        }, 
        "name": "高原住宅前"
    }, 
    "b_5211": {
        "coordinates": {
            "lat": 38.23288382024398, 
            "lon": 140.90410942065378
        }, 
        "name": "法務省アパート前"
    }, 
    "b_5213": {
        "coordinates": {
            "lat": 38.23201672133317, 
            "lon": 140.90585931525368
        }, 
        "name": "古城三丁目"
    }, 
    "b_5217": {
        "coordinates": {
            "lat": 38.2349436764193, 
            "lon": 140.90848896208715
        }, 
        "name": "古城三丁目東"
    }, 
    "b_5219": {
        "coordinates": {
            "lat": 38.236603581520974, 
            "lon": 140.91322043715365
        }, 
        "name": "遠見塚小学校前"
    }, 
    "b_5221": {
        "coordinates": {
            "lat": 38.24042019160139, 
            "lon": 140.91744907689315
        }, 
        "name": "遠見塚"
    }, 
    "b_5222": {
        "coordinates": {
            "lat": 38.24012109067006, 
            "lon": 140.91938087467614
        }, 
        "name": "遠見塚東"
    }, 
    "b_5223": {
        "coordinates": {
            "lat": 38.24033608608093, 
            "lon": 140.92043466614876
        }, 
        "name": "市営バス霞の目営業所前"
    }, 
    "b_5225": {
        "coordinates": {
            "lat": 38.2373025934629, 
            "lon": 140.9245455755351
        }, 
        "name": "霞目飛行場前"
    }, 
    "b_5227": {
        "coordinates": {
            "lat": 38.23514982048132, 
            "lon": 140.92754042594362
        }, 
        "name": "霞の目"
    }, 
    "b_5301": {
        "coordinates": {
            "lat": 38.235660229625935, 
            "lon": 140.8904784804019
        }, 
        "name": "広瀬橋"
    }, 
    "b_5303": {
        "coordinates": {
            "lat": 38.23396740907247, 
            "lon": 140.89356635746097
        }, 
        "name": "若林一丁目"
    }, 
    "b_5305": {
        "coordinates": {
            "lat": 38.23282952372851, 
            "lon": 140.8963431236934
        }, 
        "name": "若林二丁目"
    }, 
    "b_5307": {
        "coordinates": {
            "lat": 38.23190965832636, 
            "lon": 140.89841604945119
        }, 
        "name": "若林三丁目"
    }, 
    "b_5309": {
        "coordinates": {
            "lat": 38.23041986930254, 
            "lon": 140.90137170591987
        }, 
        "name": "若林小学校前"
    }, 
    "b_5311": {
        "coordinates": {
            "lat": 38.22738333425782, 
            "lon": 140.90621561012725
        }, 
        "name": "若林七丁目"
    }, 
    "b_5313": {
        "coordinates": {
            "lat": 38.22527860231505, 
            "lon": 140.90867355846848
        }, 
        "name": "沖野四丁目"
    }, 
    "b_5315": {
        "coordinates": {
            "lat": 38.221197977747096, 
            "lon": 140.91154045271946
        }, 
        "name": "沖野四丁目南"
    }, 
    "b_5317": {
        "coordinates": {
            "lat": 38.22036117422594, 
            "lon": 140.91448413567025
        }, 
        "name": "上飯田二丁目"
    }, 
    "b_5319": {
        "coordinates": {
            "lat": 38.219683239180455, 
            "lon": 140.91723199423532
        }, 
        "name": "上飯田二丁目東"
    }, 
    "b_5321": {
        "coordinates": {
            "lat": 38.21968329255238, 
            "lon": 140.92028785155782
        }, 
        "name": "上飯田三丁目"
    }, 
    "b_5323": {
        "coordinates": {
            "lat": 38.21815851603776, 
            "lon": 140.92374541239928
        }, 
        "name": "上飯田四丁目"
    }, 
    "b_5325": {
        "coordinates": {
            "lat": 38.21790584908781, 
            "lon": 140.92854308114727
        }, 
        "name": "東高校入口"
    }, 
    "b_5326": {
        "coordinates": {
            "lat": 38.21639495285523, 
            "lon": 140.93159289743468
        }, 
        "name": "六郷交番前"
    }, 
    "b_5327": {
        "coordinates": {
            "lat": 38.2156361723394, 
            "lon": 140.93315085854238
        }, 
        "name": "六郷小学校前"
    }, 
    "b_5328": {
        "coordinates": {
            "lat": 38.21313644588016, 
            "lon": 140.93350399987412
        }, 
        "name": "ＪＡ仙台六郷支店前"
    }, 
    "b_5329": {
        "coordinates": {
            "lat": 38.211335549577164, 
            "lon": 140.93477397732906
        }, 
        "name": "小在家橋"
    }, 
    "b_5331": {
        "coordinates": {
            "lat": 38.204883322088136, 
            "lon": 140.94267056307334
        }, 
        "name": "二木"
    }, 
    "b_5333": {
        "coordinates": {
            "lat": 38.203577661648644, 
            "lon": 140.94457352071137
        }, 
        "name": "種次入口"
    }, 
    "b_5335": {
        "coordinates": {
            "lat": 38.20146377290682, 
            "lon": 140.94754031610387
        }, 
        "name": "二木山王"
    }, 
    "b_5337": {
        "coordinates": {
            "lat": 38.1998859367699, 
            "lon": 140.9504401479297
        }, 
        "name": "東六郷小学校前"
    }, 
    "b_5339": {
        "coordinates": {
            "lat": 38.199797187319845, 
            "lon": 140.95787953418204
        }, 
        "name": "井土浜"
    }, 
    "b_5341": {
        "coordinates": {
            "lat": 38.19284093615373, 
            "lon": 140.9549731514228
        }, 
        "name": "中野"
    }, 
    "b_5401": {
        "coordinates": {
            "lat": 38.21804138124162, 
            "lon": 140.91213054906348
        }, 
        "name": "上飯田西"
    }, 
    "b_5403": {
        "coordinates": {
            "lat": 38.213519924663856, 
            "lon": 140.91237379261628
        }, 
        "name": "日辺田中"
    }, 
    "b_5411": {
        "coordinates": {
            "lat": 38.21146128555521, 
            "lon": 140.91406763562665
        }, 
        "name": "日辺徳照寺前"
    }, 
    "b_5413": {
        "coordinates": {
            "lat": 38.21109720367917, 
            "lon": 140.9166924344043
        }, 
        "name": "日辺"
    }, 
    "b_5415": {
        "coordinates": {
            "lat": 38.213036171019354, 
            "lon": 140.9171542512121
        }, 
        "name": "日辺沖田東"
    }, 
    "b_5454": {
        "coordinates": {
            "lat": 38.21485876234049, 
            "lon": 140.91764023803805
        }, 
        "name": "上飯田前田"
    }, 
    "b_5455": {
        "coordinates": {
            "lat": 38.21432693276799, 
            "lon": 140.92095998682498
        }, 
        "name": "上飯田・ニッペリア前"
    }, 
    "b_5457": {
        "coordinates": {
            "lat": 38.211905240452225, 
            "lon": 140.92056513112843
        }, 
        "name": "日辺高田"
    }, 
    "b_5459": {
        "coordinates": {
            "lat": 38.21102541773082, 
            "lon": 140.92532672064016
        }, 
        "name": "今泉"
    }, 
    "b_5461": {
        "coordinates": {
            "lat": 38.212537232169964, 
            "lon": 140.92714150031023
        }, 
        "name": "今泉神社前"
    }, 
    "b_5463": {
        "coordinates": {
            "lat": 38.21397824497112, 
            "lon": 140.93033727966082
        }, 
        "name": "六郷中学校入口"
    }, 
    "b_5465": {
        "coordinates": {
            "lat": 38.2093587179972, 
            "lon": 140.9291303703855
        }, 
        "name": "久保田東"
    }, 
    "b_5467": {
        "coordinates": {
            "lat": 38.20579491876041, 
            "lon": 140.92834282211422
        }, 
        "name": "今泉温水プール前"
    }, 
    "b_5469": {
        "coordinates": {
            "lat": 38.20551613247021, 
            "lon": 140.9325094333626
        }, 
        "name": "小在家"
    }, 
    "b_5471": {
        "coordinates": {
            "lat": 38.202716483415045, 
            "lon": 140.9354573730092
        }, 
        "name": "古川"
    }, 
    "b_5473": {
        "coordinates": {
            "lat": 38.19957490540347, 
            "lon": 140.93719820642733
        }, 
        "name": "今泉中村"
    }, 
    "b_5475": {
        "coordinates": {
            "lat": 38.19701029509935, 
            "lon": 140.94380388703468
        }, 
        "name": "種次"
    }, 
    "b_5477": {
        "coordinates": {
            "lat": 38.19348066695704, 
            "lon": 140.94347907653776
        }, 
        "name": "竹野花"
    }, 
    "b_55": {
        "coordinates": {
            "lat": 38.26182603304663, 
            "lon": 140.87406169450648
        }, 
        "name": "電力ビル前"
    }, 
    "b_5500": {
        "coordinates": {
            "lat": 38.21561122106474, 
            "lon": 140.93578758515798
        }, 
        "name": "築道"
    }, 
    "b_5501": {
        "coordinates": {
            "lat": 38.21631399451637, 
            "lon": 140.93984332708297
        }, 
        "name": "下飯田入口"
    }, 
    "b_5503": {
        "coordinates": {
            "lat": 38.21623017416619, 
            "lon": 140.94325388103255
        }, 
        "name": "下飯田中区"
    }, 
    "b_5505": {
        "coordinates": {
            "lat": 38.216261344403165, 
            "lon": 140.94682969374034
        }, 
        "name": "下飯田"
    }, 
    "b_5507": {
        "coordinates": {
            "lat": 38.213305546338574, 
            "lon": 140.94665178906453
        }, 
        "name": "赤沼"
    }, 
    "b_5509": {
        "coordinates": {
            "lat": 38.210413978947905, 
            "lon": 140.95053159999705
        }, 
        "name": "沼屋敷"
    }, 
    "b_5511": {
        "coordinates": {
            "lat": 38.209757986033885, 
            "lon": 140.9532814018348
        }, 
        "name": "三本塚"
    }, 
    "b_5513": {
        "coordinates": {
            "lat": 38.213905648619914, 
            "lon": 140.9561820810608
        }, 
        "name": "長屋敷"
    }, 
    "b_5515": {
        "coordinates": {
            "lat": 38.22194664508111, 
            "lon": 140.9511490732302
        }, 
        "name": "藤田"
    }, 
    "b_5517": {
        "coordinates": {
            "lat": 38.22255762880272, 
            "lon": 140.9475973956156
        }, 
        "name": "藤田西"
    }, 
    "b_5519": {
        "coordinates": {
            "lat": 38.224677386714966, 
            "lon": 140.94671820435698
        }, 
        "name": "藤田北裏"
    }, 
    "b_5521": {
        "coordinates": {
            "lat": 38.23527486207081, 
            "lon": 140.93068710330164
        }, 
        "name": "霞の目東"
    }, 
    "b_5601": {
        "coordinates": {
            "lat": 38.22134521352946, 
            "lon": 140.9132183621464
        }, 
        "name": "上飯田一丁目"
    }, 
    "b_5603": {
        "coordinates": {
            "lat": 38.224683747507186, 
            "lon": 140.91334319805026
        }, 
        "name": "沖野小学校前"
    }, 
    "b_5605": {
        "coordinates": {
            "lat": 38.22803032245027, 
            "lon": 140.9126819877532
        }, 
        "name": "沖野三丁目"
    }, 
    "b_5609": {
        "coordinates": {
            "lat": 38.23023925468029, 
            "lon": 140.91278687732807
        }, 
        "name": "沖野二丁目"
    }, 
    "b_5611": {
        "coordinates": {
            "lat": 38.23029706553877, 
            "lon": 140.91503474353834
        }, 
        "name": "沖野中学校前"
    }, 
    "b_5613": {
        "coordinates": {
            "lat": 38.230031345055345, 
            "lon": 140.91986824324505
        }, 
        "name": "沖野"
    }, 
    "b_5615": {
        "coordinates": {
            "lat": 38.225513824278, 
            "lon": 140.92282126157224
        }, 
        "name": "沖野市民センター前"
    }, 
    "b_5617": {
        "coordinates": {
            "lat": 38.222303032616175, 
            "lon": 140.92144846787247
        }, 
        "name": "沖野東小学校前"
    }, 
    "b_5619": {
        "coordinates": {
            "lat": 38.231941793151385, 
            "lon": 140.90951207090143
        }, 
        "name": "沖野一丁目"
    }, 
    "b_5621": {
        "coordinates": {
            "lat": 38.23154180940551, 
            "lon": 140.9079933265608
        }, 
        "name": "東北電力南営業所前"
    }, 
    "b_5653": {
        "coordinates": {
            "lat": 38.24707823507177, 
            "lon": 140.9098194039493
        }, 
        "name": "大和町ＮＴＴ東北病院前"
    }, 
    "b_5655": {
        "coordinates": {
            "lat": 38.240724992302304, 
            "lon": 140.9079056887611
        }, 
        "name": "南小泉二丁目東"
    }, 
    "b_5657": {
        "coordinates": {
            "lat": 38.238302183687146, 
            "lon": 140.90720696946272
        }, 
        "name": "南小泉四丁目東"
    }, 
    "b_60": {
        "coordinates": {
            "lat": 38.26301507448693, 
            "lon": 140.87417357490787
        }, 
        "name": "地下鉄広瀬通駅"
    }, 
    "b_6000": {
        "coordinates": {
            "lat": 38.23176951420232, 
            "lon": 140.8893068124182
        }, 
        "name": "市立病院"
    }, 
    "b_6001": {
        "coordinates": {
            "lat": 38.23353429083745, 
            "lon": 140.88732578456745
        }, 
        "name": "長町一丁目"
    }, 
    "b_6002": {
        "coordinates": {
            "lat": 38.234347285268875, 
            "lon": 140.8888047909682
        }, 
        "name": "長町一丁目東"
    }, 
    "b_6003": {
        "coordinates": {
            "lat": 38.23158253313426, 
            "lon": 140.88606514580113
        }, 
        "name": "長町三丁目"
    }, 
    "b_6005": {
        "coordinates": {
            "lat": 38.230433755592806, 
            "lon": 140.88540525350203
        }, 
        "name": "長町三丁目南"
    }, 
    "b_6007": {
        "coordinates": {
            "lat": 38.22768098525458, 
            "lon": 140.884877368543
        }, 
        "name": "地下鉄長町駅・たいはっくる前"
    }, 
    "b_6008": {
        "coordinates": {
            "lat": 38.226006149619344, 
            "lon": 140.88403140480912
        }, 
        "name": "ＪＲ長町駅西口"
    }, 
    "b_6015": {
        "coordinates": {
            "lat": 38.224199400872564, 
            "lon": 140.8841714763712
        }, 
        "name": "南警察署前"
    }, 
    "b_6016": {
        "coordinates": {
            "lat": 38.22174746363812, 
            "lon": 140.88547259232956
        }, 
        "name": "あすと長町二丁目南"
    }, 
    "b_6017": {
        "coordinates": {
            "lat": 38.21999677419233, 
            "lon": 140.88298982357927
        }, 
        "name": "長町六丁目"
    }, 
    "b_6018": {
        "coordinates": {
            "lat": 38.22068564202454, 
            "lon": 140.88600259720658
        }, 
        "name": "あすと長町三丁目"
    }, 
    "b_6019": {
        "coordinates": {
            "lat": 38.21417242640887, 
            "lon": 140.88466384163473
        }, 
        "name": "諏訪町"
    }, 
    "b_6020": {
        "coordinates": {
            "lat": 38.21692015800725, 
            "lon": 140.88294302468958
        }, 
        "name": "太子堂駅前"
    }, 
    "b_6021": {
        "coordinates": {
            "lat": 38.21031978227785, 
            "lon": 140.88462624438114
        }, 
        "name": "東大野田"
    }, 
    "b_6023": {
        "coordinates": {
            "lat": 38.203189439199555, 
            "lon": 140.88493349163807
        }, 
        "name": "中田一丁目"
    }, 
    "b_6025": {
        "coordinates": {
            "lat": 38.200283942055215, 
            "lon": 140.88638850458923
        }, 
        "name": "中田小学校前"
    }, 
    "b_6027": {
        "coordinates": {
            "lat": 38.197377301086284, 
            "lon": 140.8859636737124
        }, 
        "name": "中田五丁目"
    }, 
    "b_6029": {
        "coordinates": {
            "lat": 38.19922403191374, 
            "lon": 140.8850425540635
        }, 
        "name": "中田三丁目"
    }, 
    "b_6101": {
        "coordinates": {
            "lat": 38.200845882439744, 
            "lon": 140.88959710113159
        }, 
        "name": "中田二丁目"
    }, 
    "b_6103": {
        "coordinates": {
            "lat": 38.20035296379296, 
            "lon": 140.8944167235636
        }, 
        "name": "東中田六丁目"
    }, 
    "b_6104": {
        "coordinates": {
            "lat": 38.200749927902656, 
            "lon": 140.89797335435418
        }, 
        "name": "東中田二丁目"
    }, 
    "b_6105": {
        "coordinates": {
            "lat": 38.2004860967169, 
            "lon": 140.89966128187748
        }, 
        "name": "東中田五丁目"
    }, 
    "b_6106": {
        "coordinates": {
            "lat": 38.199921211228684, 
            "lon": 140.90275799515382
        }, 
        "name": "中田中央公園入口"
    }, 
    "b_6107": {
        "coordinates": {
            "lat": 38.199757387859755, 
            "lon": 140.9055058300477
        }, 
        "name": "袋原"
    }, 
    "b_6108": {
        "coordinates": {
            "lat": 38.19821648917928, 
            "lon": 140.90823178572404
        }, 
        "name": "袋原四丁目"
    }, 
    "b_6109": {
        "coordinates": {
            "lat": 38.19510876339127, 
            "lon": 140.90808083025033
        }, 
        "name": "畑中"
    }, 
    "b_6111": {
        "coordinates": {
            "lat": 38.19398496669198, 
            "lon": 140.9064771262948
        }, 
        "name": "袋原市営住宅前"
    }, 
    "b_6112": {
        "coordinates": {
            "lat": 38.192008202227136, 
            "lon": 140.90467625576792
        }, 
        "name": "袋原南"
    }, 
    "b_6113": {
        "coordinates": {
            "lat": 38.19018615723839, 
            "lon": 140.90366559026867
        }, 
        "name": "堰場"
    }, 
    "b_6114": {
        "coordinates": {
            "lat": 38.190430342077214, 
            "lon": 140.9062012017779
        }, 
        "name": "境"
    }, 
    "b_6115": {
        "coordinates": {
            "lat": 38.19094424034598, 
            "lon": 140.90988503884185
        }, 
        "name": "四郎丸小学校前"
    }, 
    "b_6116": {
        "coordinates": {
            "lat": 38.19231414710423, 
            "lon": 140.91293555575277
        }, 
        "name": "東中田市民センター前"
    }, 
    "b_6117": {
        "coordinates": {
            "lat": 38.19230225758568, 
            "lon": 140.9160072456436
        }, 
        "name": "四郎丸市営住宅前"
    }, 
    "b_6119": {
        "coordinates": {
            "lat": 38.1918084895793, 
            "lon": 140.9199041669665
        }, 
        "name": "浜堀"
    }, 
    "b_6121": {
        "coordinates": {
            "lat": 38.19172438498541, 
            "lon": 140.92294280737178
        }, 
        "name": "昭和北"
    }, 
    "b_6123": {
        "coordinates": {
            "lat": 38.18952778772978, 
            "lon": 140.9293684859823
        }, 
        "name": "四郎丸"
    }, 
    "b_6133": {
        "coordinates": {
            "lat": 38.1974201339819, 
            "lon": 140.88938144345298
        }, 
        "name": "中田中学校前"
    }, 
    "b_6135": {
        "coordinates": {
            "lat": 38.19688331168233, 
            "lon": 140.89308699376267
        }, 
        "name": "中田神明東"
    }, 
    "b_6136": {
        "coordinates": {
            "lat": 38.19556151665329, 
            "lon": 140.89354701642256
        }, 
        "name": "中田二軒橋"
    }, 
    "b_6137": {
        "coordinates": {
            "lat": 38.1924669206485, 
            "lon": 140.89772597852627
        }, 
        "name": "ＪＣＨＯ仙台南病院入口"
    }, 
    "b_6139": {
        "coordinates": {
            "lat": 38.1921681150845, 
            "lon": 140.90066658140424
        }, 
        "name": "東前田"
    }, 
    "b_6141": {
        "coordinates": {
            "lat": 38.20019824772464, 
            "lon": 140.90972434829234
        }, 
        "name": "袋原三丁目"
    },